     3.04           OBSERVATION DATA    M (MIXED)           RINEX VERSION / TYPE
HEADER CHANGED BY EPN CB ON 2021-12-28                      COMMENT
TO BE CONFORM WITH THE INFORMATION IN                       COMMENT
ftp://epncb.oma.be/pub/station/log/bme1.log                 COMMENT
                                                            COMMENT
CHC                 CHC                 19700101 000000 UTC PGM / RUN BY / DATE
gfzrnx-1.13-7761    FILE PROCESSING     20211222 000622 UTC COMMENT
BME1                                                        MARKER NAME
11209M002                                                   MARKER NUMBER
BMEDGS              BMEDGS                                  OBSERVER / AGENCY
5904C01658          CHC P5E             5.44,31/OCT/2019    REC # / TYPE / VERS
C19090010006        CHCC220GR2      CHCD                    ANT # / TYPE
        0.0000        0.0000        0.0000                  ANTENNA: DELTA H/E/N
  4082000.1385  1410145.3094  4678053.6452                  APPROX POSITION XYZ
C   13 C2I C5X C6I C7I D2I L2I L5X L6I L7I S2I S5X S6I S7I  SYS / # / OBS TYPES
E   13 C1X C5X C7X C8X D1X L1X L5X L7X L8X S1X S5X S7X S8X  SYS / # / OBS TYPES
G    7 C1C C2P D1C L1C L2P S1C S2P                          SYS / # / OBS TYPES
R    7 C1C C2P D1C L1C L2P S1C S2P                          SYS / # / OBS TYPES
HUACE ANT REFERENCEPOINT                                    COMMENT
 C1C    0.000 C1P    0.000 C2C    0.000 C2P    0.000        GLONASS COD/PHS/BIS
   111                                                      # OF SATELLITES
   C02  1343         208  1265  1343  1343         208  1265PRN / # OF OBS
        1343         208  1265                              PRN / # OF OBS
   C05  2861        2833  2833  2861  2861        2833  2833PRN / # OF OBS
        2861        2833  2833                              PRN / # OF OBS
   C06  1101        1101  1101  1101  1101        1101  1101PRN / # OF OBS
        1101        1101  1101                              PRN / # OF OBS
   C07  1159        1158  1158  1159  1159        1158  1158PRN / # OF OBS
        1159        1158  1158                              PRN / # OF OBS
   C09  1395        1394  1394  1395  1395        1394  1394PRN / # OF OBS
        1395        1394  1394                              PRN / # OF OBS
   C10  1398        1398  1398  1398  1398        1398  1398PRN / # OF OBS
        1398        1398  1398                              PRN / # OF OBS
   C11   764         764   764   764   764         764   764PRN / # OF OBS
         764         764   764                              PRN / # OF OBS
   C12   630         630   630   630   630         630   630PRN / # OF OBS
         630         630   630                              PRN / # OF OBS
   C13  1397        1397  1397  1397  1397        1397  1397PRN / # OF OBS
        1397        1397  1397                              PRN / # OF OBS
   C14   907         907   907   907   907         907   907PRN / # OF OBS
         907         907   907                              PRN / # OF OBS
   C16  1058        1058  1058  1058  1058        1058  1058PRN / # OF OBS
        1058        1058  1058                              PRN / # OF OBS
   C19  1046  1029  1046        1046  1046  1029  1046      PRN / # OF OBS
        1046  1029  1046                                    PRN / # OF OBS
   C20  1238  1234  1238        1238  1238  1234  1238      PRN / # OF OBS
        1238  1234  1238                                    PRN / # OF OBS
   C21   865   855   865         865   865   855   865      PRN / # OF OBS
         865   855   865                                    PRN / # OF OBS
   C22   998   983   998         998   998   983   998      PRN / # OF OBS
         998   983   998                                    PRN / # OF OBS
   C23   991   955   991         991   991   955   991      PRN / # OF OBS
         991   955   991                                    PRN / # OF OBS
   C24  1053  1022  1053        1053  1053  1022  1053      PRN / # OF OBS
        1053  1022  1053                                    PRN / # OF OBS
   C25  1029   943  1029        1029  1029   943  1029      PRN / # OF OBS
        1029   943  1029                                    PRN / # OF OBS
   C26  1080   995  1080        1080  1080   995  1080      PRN / # OF OBS
        1080   995  1080                                    PRN / # OF OBS
   C27  1289  1276  1289        1289  1289  1276  1289      PRN / # OF OBS
        1289  1276  1289                                    PRN / # OF OBS
   C28  1279  1177  1279        1279  1279  1177  1279      PRN / # OF OBS
        1279  1177  1279                                    PRN / # OF OBS
   C29  1197  1127  1197        1197  1197  1127  1197      PRN / # OF OBS
        1197  1127  1197                                    PRN / # OF OBS
   C30  1286  1185  1285        1286  1286  1185  1285      PRN / # OF OBS
        1286  1185  1285                                    PRN / # OF OBS
   C32  1071  1067  1071        1071  1071  1067  1071      PRN / # OF OBS
        1071  1067  1071                                    PRN / # OF OBS
   C33   946   945   946         946   946   945   946      PRN / # OF OBS
         946   945   946                                    PRN / # OF OBS
   C34   660   591   660         660   660   591   660      PRN / # OF OBS
         660   591   660                                    PRN / # OF OBS
   C35   841   730   841         841   841   730   841      PRN / # OF OBS
         841   730   841                                    PRN / # OF OBS
   C36   942   942   942         942   942   942   942      PRN / # OF OBS
         942   942   942                                    PRN / # OF OBS
   C37  1105  1101  1105        1105  1105  1101  1105      PRN / # OF OBS
        1105  1101  1105                                    PRN / # OF OBS
   C38   951   898   951         951   951   898   951      PRN / # OF OBS
         951   898   951                                    PRN / # OF OBS
   C39   991   901   991         991   991   901   991      PRN / # OF OBS
         991   901   991                                    PRN / # OF OBS
   C40   971   918   971         971   971   918   971      PRN / # OF OBS
         971   918   971                                    PRN / # OF OBS
   C41   978   968   978         978   978   968   978      PRN / # OF OBS
         978   968   978                                    PRN / # OF OBS
   C42   890   808   890         890   890   808   890      PRN / # OF OBS
         890   808   890                                    PRN / # OF OBS
   C43   982   921   982         982   982   921   982      PRN / # OF OBS
         982   921   982                                    PRN / # OF OBS
   C44   326   311   326         326   326   311   326      PRN / # OF OBS
         326   311   326                                    PRN / # OF OBS
   C45   935   875   935         935   935   875   935      PRN / # OF OBS
         935   875   935                                    PRN / # OF OBS
   C46   968   966   968         968   968   966   968      PRN / # OF OBS
         968   966   968                                    PRN / # OF OBS
   C60  2853        2813        2853  2853        2813      PRN / # OF OBS
        2853        2813                                    PRN / # OF OBS
   E01   675   650   675   675   675   675   650   675   675PRN / # OF OBS
         675   650   675   675                              PRN / # OF OBS
   E02  1405  1389  1405  1405  1405  1405  1389  1405  1405PRN / # OF OBS
        1405  1389  1405  1405                              PRN / # OF OBS
   E03  1276  1248  1276  1276  1276  1276  1248  1276  1276PRN / # OF OBS
        1276  1248  1276  1276                              PRN / # OF OBS
   E04   965   854   965   965   965   965   854   965   965PRN / # OF OBS
         965   854   965   965                              PRN / # OF OBS
   E05  1117  1056  1116  1116  1117  1117  1056  1116  1116PRN / # OF OBS
        1117  1056  1116  1116                              PRN / # OF OBS
   E07   798   787   798   798   798   798   787   798   798PRN / # OF OBS
         798   787   798   798                              PRN / # OF OBS
   E08  1091  1061  1091  1091  1091  1091  1061  1091  1091PRN / # OF OBS
        1091  1061  1091  1091                              PRN / # OF OBS
   E09   989   983   989   989   989   989   983   989   989PRN / # OF OBS
         989   983   989   989                              PRN / # OF OBS
   E11  1103   959  1102  1102  1103  1103   959  1102  1102PRN / # OF OBS
        1103   959  1102  1102                              PRN / # OF OBS
   E12   533   506   533   533   533   533   506   533   533PRN / # OF OBS
         533   506   533   533                              PRN / # OF OBS
   E13  1073  1060  1073  1073  1073  1073  1060  1073  1073PRN / # OF OBS
        1073  1060  1073  1073                              PRN / # OF OBS
   E15  1466  1397  1466  1466  1466  1466  1397  1466  1466PRN / # OF OBS
        1466  1397  1466  1466                              PRN / # OF OBS
   E19   512   462   512   512   512   512   462   512   512PRN / # OF OBS
         512   462   512   512                              PRN / # OF OBS
   E21   731   725   731   731   731   731   725   731   731PRN / # OF OBS
         731   725   731   731                              PRN / # OF OBS
   E24   902   894   902   902   902   902   894   902   902PRN / # OF OBS
         902   894   902   902                              PRN / # OF OBS
   E25  1213  1179  1213  1213  1213  1213  1179  1213  1213PRN / # OF OBS
        1213  1179  1213  1213                              PRN / # OF OBS
   E26   536   533   536   536   536   536   533   536   536PRN / # OF OBS
         536   533   536   536                              PRN / # OF OBS
   E27  1031  1031  1031  1031  1031  1031  1031  1031  1031PRN / # OF OBS
        1031  1031  1031  1031                              PRN / # OF OBS
   E30  1154  1141  1154  1154  1154  1154  1141  1154  1154PRN / # OF OBS
        1154  1141  1154  1154                              PRN / # OF OBS
   E31   683   635   683   683   683   683   635   683   683PRN / # OF OBS
         683   635   683   683                              PRN / # OF OBS
   E33   304   299   304   304   304   304   299   304   304PRN / # OF OBS
         304   299   304   304                              PRN / # OF OBS
   E36  1409  1384  1409  1409  1409  1409  1384  1409  1409PRN / # OF OBS
        1409  1384  1409  1409                              PRN / # OF OBS
   G01   941   928   941   941   928   941   928            PRN / # OF OBS
   G02  1160  1145  1160  1160  1145  1160  1145            PRN / # OF OBS
   G03   862   854   862   862   854   862   854            PRN / # OF OBS
   G04   936   917   936   936   917   936   917            PRN / # OF OBS
   G05  1109  1106  1109  1109  1106  1109  1106            PRN / # OF OBS
   G06  1112  1105  1112  1112  1105  1112  1105            PRN / # OF OBS
   G07   968   944   968   968   944   968   944            PRN / # OF OBS
   G08  1010   998  1010  1010   998  1010   998            PRN / # OF OBS
   G09   864   854   864   864   854   864   854            PRN / # OF OBS
   G10  1052  1046  1052  1052  1046  1052  1046            PRN / # OF OBS
   G12   862   851   862   862   851   862   851            PRN / # OF OBS
   G13   966   936   966   966   936   966   936            PRN / # OF OBS
   G14  1054  1049  1054  1054  1049  1054  1049            PRN / # OF OBS
   G15  1038  1023  1038  1038  1023  1038  1023            PRN / # OF OBS
   G16  1104  1084  1104  1104  1084  1104  1084            PRN / # OF OBS
   G17  1156  1138  1156  1156  1138  1156  1138            PRN / # OF OBS
   G18   981   973   981   981   973   981   973            PRN / # OF OBS
   G19  1129  1121  1129  1129  1121  1129  1121            PRN / # OF OBS
   G20  1105  1074  1105  1105  1074  1105  1074            PRN / # OF OBS
   G21   947   922   947   947   922   947   922            PRN / # OF OBS
   G23  1126  1120  1126  1126  1120  1126  1120            PRN / # OF OBS
   G24   912   867   912   912   867   912   867            PRN / # OF OBS
   G25   849   839   849   849   839   849   839            PRN / # OF OBS
   G26  1039  1026  1039  1039  1026  1039  1026            PRN / # OF OBS
   G29   929   915   929   929   915   929   915            PRN / # OF OBS
   G30   846   839   846   846   839   846   839            PRN / # OF OBS
   G31  1118  1105  1118  1118  1105  1118  1105            PRN / # OF OBS
   G32  1148  1143  1148  1148  1143  1148  1143            PRN / # OF OBS
   R01   573   573   573   573   573   573   573            PRN / # OF OBS
   R02  1003  1003  1003  1003  1003  1003  1003            PRN / # OF OBS
   R03   901   900   901   901   900   901   900            PRN / # OF OBS
   R04  1131  1131  1131  1131  1131  1131  1131            PRN / # OF OBS
   R05  1239  1239  1239  1239  1239  1239  1239            PRN / # OF OBS
   R06  1164        1164  1164        1164                  PRN / # OF OBS
   R07  1097  1097  1097  1097  1097  1097  1097            PRN / # OF OBS
   R08   988   988   988   988   988   988   988            PRN / # OF OBS
   R09  1010  1009  1010  1010  1009  1010  1009            PRN / # OF OBS
   R10  1159        1159  1159        1159                  PRN / # OF OBS
   R12  1194  1194  1194  1194  1194  1194  1194            PRN / # OF OBS
   R13   753   752   753   753   752   753   752            PRN / # OF OBS
   R14   854   854   854   854   854   854   854            PRN / # OF OBS
   R15  1033  1033  1033  1033  1033  1033  1033            PRN / # OF OBS
   R17  1022  1022  1022  1022  1022  1022  1022            PRN / # OF OBS
   R18  1007  1007  1007  1007  1007  1007  1007            PRN / # OF OBS
   R19   832   832   832   832   832   832   832            PRN / # OF OBS
   R20  1081  1081  1081  1081  1081  1081  1081            PRN / # OF OBS
   R21  1265  1265  1265  1265  1265  1265  1265            PRN / # OF OBS
   R22   969   968   969   969   968   969   968            PRN / # OF OBS
   R23   961         961   961         961                  PRN / # OF OBS
   R24  1030  1030  1030  1030  1030  1030  1030            PRN / # OF OBS
    30.000                                                  INTERVAL
  2021    12    21     0     0    0.0000000     GPS         TIME OF FIRST OBS
  2021    12    21    23    59   30.0000000     GPS         TIME OF LAST OBS
                                                            END OF HEADER
> 2021 12 21 00 00 00.0000000  0 44
C02  40513010.617                    40512999.359    40513005.250       65094.980   210961856.282                   171423756.726   163129086.542          31.000                          36.000          39.000
C05  39019599.211                    39019588.855    39019595.699       65106.652   203185251.981                   165104647.070   157115746.243          36.000                          38.000          41.000
C06  40676155.586                    40676142.586    40676151.957        1556.082   211811408.297                   172114073.120   163786016.631          35.000                          34.000          37.000
C09  41565146.484                    41565134.020    41565145.824        1581.469   216440618.465                   175875688.439   167365619.068          33.000                          29.000          35.000
C11  22205531.891                    22205521.652    22205530.906         755.461   115630062.323                    93958855.499    89412502.368          50.000                          51.000          53.000
C12  22606721.195                    22606710.289    22606719.891       63620.793   117719164.630                    95656422.955    91027928.993          49.000                          50.000          52.000
C13  39874801.609                    39874794.086    39874804.969       64191.480   207638571.679                   168723323.096   160559337.587          39.000                          34.000          39.000
C14  26836037.336                    26836025.863    26836035.227        3089.742   139742289.940                   113552009.398   108057598.538          32.000                          34.000          35.000
C16  40724423.609                    40724415.371    40724426.266        1402.293   212062763.990                   172318329.463   163980390.421          36.000                          33.000          38.000
C21  23011052.062    23011048.516    23011039.020                         969.688   119824607.434    90300289.795    97367254.902                          50.000          37.000          50.000
C22  24376114.438    24376107.027    24376100.070                       63408.918   126932844.271    95657079.807   103143284.277                          45.000          32.000          46.000
C23  25553642.984    25553634.609    25553626.441                       63905.922   133064518.229   100277912.055   108125751.683                          40.000          29.000          41.000
C25  26300441.547    26300438.457    26300433.281                       62261.320   136953286.790   103208525.789   111285719.862                          39.000          26.000          38.000
C34  21778381.727    21778380.258    21778375.090                       65049.070   113405785.125    85463047.792    92151466.135                          53.000          40.000          53.000
C37  26839415.547    26839417.230    26839410.902                         702.234   139759885.771   105323612.422   113566329.847                          37.000          23.000          37.000
C39  40270096.656    40270092.227    40270086.629                        1224.016   209696973.062   158028477.276   170395921.650                          37.000          26.000          38.000
C42  25320335.609    25320343.520    25320336.754                        2963.422   131849643.561    99362447.834   107138633.454                          41.000          29.000          42.000
C43  23832371.391    23832370.387    23832363.523                        1867.070   124101426.270    93523321.981   100842567.124                          46.000          33.000          46.000
C44  24006240.062    24006237.648    24006231.719                       62638.559   125006823.738    94205662.591   101578263.084                          44.000          32.000          44.000
C60  40578993.617                    40578970.238                       65023.871   211305517.135                   171702901.711                          36.000                          38.000
E04  28872589.789                    28872593.398    28872593.816        2568.035   151726484.862                   116257966.699   114780113.735          34.000                          39.000          39.000
E11  23854093.828    23854090.250    23854094.051    23854094.160        1430.270   125354118.266    93608575.494    96050563.054    94829584.048          45.000          30.000          45.000          45.000
E12  21966700.477    21966698.289    21966701.090    21966701.301       64783.242   115435806.319    86202041.616    88450823.206    87326453.189          49.000          36.000          52.000          53.000
E19  26018751.281    26018751.059    26018754.066    26018754.457        1740.641   136729462.123   102103152.673   104766741.300   103434967.271          40.000          27.000          42.000          43.000
E24  25798040.734    25798041.391    25798043.078    25798043.836       62725.750   135569613.846   101237018.831   103878024.128   102557542.259          49.000          33.000          50.000          50.000
E25  25742526.867    25742528.363    25742530.641    25742531.090       65502.145   135277885.406   101019194.971   103654492.375   102336857.953          47.000          34.000          49.000          49.000
E33  26235161.453    26235160.508    26235163.691    26235164.141       62941.930   137866719.514   102952419.993   105638150.645   104295301.598          45.000          32.000          47.000          47.000
G08  22038564.000    22038571.691        2122.168   115813428.227    90244275.604          47.000          45.000
G10  20878632.078    20878638.469         516.422   109718090.147    85494558.324          55.000          50.000
G15  24179276.234    24179280.328       63666.043   127062904.122    99010123.202          40.000          36.000
G16  21989544.664    21989547.953       62529.922   115555729.803    90043526.172          48.000          39.000
G18  23131834.781    23131838.719       62154.898   121558557.517    94721036.582          41.000          42.000
G21  24105616.281    24105620.238        2209.574   126675802.161    98708499.692          35.000          20.000
G23  21207966.375    21207970.766       63646.395   111448574.137    86843119.970          49.000          48.000
G26  24189268.617    24189276.848       61477.895   127115369.382    99051050.740          39.000          36.000
G32  25609205.477    25609211.891        2775.262   134577175.890   104865437.042          36.000          33.000
R04  21424537.258    21424549.723       63143.176   114727435.339    89232518.188          49.000          48.000
R05  20509749.094    20509759.168        1657.969   109636384.447    85272793.019          53.000          51.000
R06  23698418.664                        4124.250   126459328.314                          31.000
R10  23144602.930                       61048.230   123373737.312                          43.000
R12  23242716.000    23242727.254        1985.605   124158401.040    96567695.318          44.000          44.000
R19  23386932.250    23386942.195       61922.945   125104297.490    97303396.223          31.000          39.000
R20  19774393.633    19774405.398       64405.938   105742488.647    82244314.132          44.000          52.000
R21  21526084.164    21526094.527        2247.363   115190372.952    89592611.787          49.000          47.000
> 2021 12 21 00 00 30.0000000  0 44
C02  40515552.586                    40515541.496    40515547.223       65094.629   210975093.092                   171434512.219   163139322.073          31.000                          35.000          39.000
C05  39022072.734                    39022062.574    39022069.555       65106.473   203198134.230                   165115114.956   157125707.621          36.000                          38.000          41.000
C06  40667196.148                    40667184.098    40667193.137        1553.672   211764759.842                   172076167.443   163749945.113          34.000                          34.000          36.000
C09  41556037.125                    41556024.258    41556036.676        1580.898   216393183.109                   175837143.295   167328939.026          34.000                          29.000          34.000
C11  22201202.742                    22201192.270    22201201.520         747.512   115607518.530                    93940536.831    89395070.085          50.000                          50.000          53.000
C12  22617779.820                    22617768.582    22617778.281       63612.328   117776747.979                    95703214.137    91072456.083          49.000                          51.000          52.000
C13  39882545.781                    39882537.664    39882548.477       64192.230   207678895.041                   168756089.139   160590518.165          39.000                          35.000          39.000
C14  26818231.414                    26818219.781    26818229.402        3091.762   139649567.877                   113476665.132   107985899.959          32.000                          33.000          34.000
C16  40716354.688                    40716346.086    40716356.902        1399.031   212020746.133                   172284186.525   163947899.561          34.000                          35.000          38.000
C21  23005511.984    23005508.051    23005498.781                         953.652   119795757.989    90278548.742    97343812.368                          51.000          38.000          50.000
C22  24388411.703    24388404.977    24388397.531                       63394.004   126996880.437    95705337.734   103195318.906                          45.000          32.000          46.000
C23  25563075.805    25563066.945    25563059.285                       63891.641   133113636.870   100314928.071   108165664.597                          41.000          28.000          42.000
C25  26319316.320    26319313.539    26319308.160                       62258.289   137051573.587   103282595.126   111365585.923                          39.000          25.000          38.000
C34  21781216.414    21781215.012    21781209.684                       65038.965   113420545.406    85474171.202    92163460.072                          53.000          39.000          52.000
C37  26835413.508    26835415.781    26835409.258                         686.895   139739047.692   105307908.754   113549397.181                          36.000          24.000          37.000
C39  40263056.844    40263052.852    40263047.250                        1219.684   209660316.690   158000852.903   170366135.368                          36.000          26.000          38.000
C42  25303274.594    25303282.258    25303275.410                        2959.418   131760800.467    99295495.329   107066441.179                          43.000          29.000          42.000
C43  23821628.727    23821627.711    23821620.898                        1862.188   124045486.912    93481165.845   100797111.817                          46.000          33.000          46.000
C44  24022949.164    24022946.836    24022940.977                       62632.867   125093832.849    94271232.997   101648965.094                          44.000          31.000          44.000
C60  40581943.391                    40581920.523                       65023.867   211320880.389                   171715385.607                          36.000                          39.000
E04  28857921.078                    28857925.055    28857925.480        2570.973   151649402.054                   116198903.245   114721801.085          35.000                          38.000          38.000
E11  23845940.195    23845937.023    23845940.617    23845940.797        1426.223   125311272.194    93576580.067    96017732.957    94797171.290          44.000          30.000          45.000          45.000
E12  21971015.703    21971014.012    21971016.594    21971016.738       64776.879   115458484.089    86218976.321    88468199.684    87343608.773          49.000          37.000          53.000          53.000
E19  26008841.047    26008840.980    26008843.824    26008844.344        1731.309   136677383.894   102064263.114   104726837.223   103395570.445          40.000          26.000          42.000          43.000
E24  25814111.438    25814111.887    25814113.945    25814114.504       62716.176   135654065.890   101300083.659   103942734.117   102621429.667          48.000          33.000          50.000          51.000
E25  25742763.258    25742764.582    25742767.020    25742767.453       65487.098   135279127.522   101020122.528   103655444.122   102337797.607          47.000          32.000          49.000          49.000
E33  26249976.688    26249976.012    26249978.926    26249979.387       62939.605   137944574.390   103010558.339   105697805.658   104354198.283          44.000          31.000          47.000          47.000
G08  22026475.008    22026482.438        2113.160   115749897.992    90194771.529          47.000          45.000
G10  20875735.625    20875742.070         498.227   109702869.708    85482698.243          56.000          49.000
G15  24190006.625    24190010.434       63646.875   127119291.174    99054061.177          39.000          36.000
G16  22006747.648    22006751.031       62515.316   115646131.424    90113968.985          49.000          39.000
G18  23151147.594    23151151.742       62151.137   121660047.238    94800119.466          41.000          42.000
G21  24093016.961    24093020.820        2204.574   126609591.040    98656906.628          36.000          19.000
G23  21218802.961    21218807.441       63628.961   111505522.826    86887495.582          50.000          48.000
G26  24212441.453    24212449.305       61475.879   127237140.862    99145937.582          38.000          38.000
G32  25593352.648    25593359.621        2778.336   134493870.429   104800523.655          37.000          34.000
R04  21438011.555    21438023.797       63118.449   114799591.186    89288639.415          49.000          48.000
R05  20500513.312    20500524.285        1633.340   109587014.882    85234394.480          53.000          51.000
R06  23675235.633                        4122.871   126335624.026                          31.000
R10  23169877.695                       61041.770   123508466.563                          42.000
R12  23231624.734    23231635.746        1964.457   124099150.276    96521611.363          45.000          43.000
R19  23407207.195    23407217.023       61918.777   125212753.435    97387750.856          33.000          39.000
R20  19780767.398    19780779.031       64393.988   105776570.632    82270822.345          44.000          52.000
R21  21513501.336    21513511.559        2241.527   115123039.282    89540241.152          49.000          47.000
> 2021 12 21 00 01 00.0000000  0 44
C02  40518094.883                    40518084.391    40518089.992       65094.867   210988334.513                   171445271.967   163149561.172          30.000                          35.000          38.000
C05  39024548.086                    39024537.738    39024544.594       65106.473   203211022.771                   165125587.961   157135673.866          36.000                          38.000          41.000
C06  40658250.906                    40658238.645    40658248.000        1551.746   211718179.252                   172038316.883   163713926.033          34.000                          33.000          37.000
C09  41546931.867                    41546919.777    41546931.293        1580.055   216345772.649                   175798618.395   167292278.233          33.000                          30.000          34.000
C11  22196918.273                    22196908.168    22196917.336         739.914   115585210.263                    93922409.534    89377819.915          50.000                          50.000          52.000
C12  22628886.500                    22628875.363    22628885.031       63604.133   117834584.043                    95750210.675    91117178.596          49.000                          50.000          52.000
C13  39890283.734                    39890276.344    39890287.219       64193.402   207719191.837                   168788833.580   160621678.217          39.000                          35.000          40.000
C14  26800414.555                    26800402.215    26800412.395        3093.930   139556788.578                   113401274.315   107914157.071          31.000                          34.000          35.000
C16  40708303.992                    40708295.414    40708306.348        1396.094   211978824.644                   172250121.899   163915483.216          35.000                          35.000          38.000
C21  23000063.875    23000060.141    23000050.633                         937.828   119767388.143    90257169.116    97320759.551                          51.000          37.000          50.000
C22  24400794.008    24400787.293    24400780.172                       63379.570   127061359.037    95753929.080   103247713.040                          46.000          32.000          46.000
C23  25572589.742    25572581.590    25572573.750                       63877.727   133163181.790   100352265.314   108205923.902                          40.000          28.000          42.000
C25  26338208.008    26338205.027    26338199.691                       62255.840   137149946.528   103356729.358   111445521.995                          37.000          27.000          39.000
C34  21784108.633    21784107.406    21784102.156                       65029.117   113435607.584    85485522.132    92175699.325                          53.000          40.000          53.000
C37  26831497.711    26831500.461    26831493.613                         672.211   139718658.867   105292543.648   113532829.592                          37.000          23.000          38.000
C39  40256041.383    40256037.859    40256032.273                        1215.613   209623788.406   157973325.054   170336453.156                          36.000          25.000          39.000
C42  25286235.570    25286243.652    25286236.746                        2955.809   131672075.635    99228631.949   106994345.008                          42.000          30.000          42.000
C43  23810914.031    23810912.773    23810905.805                        1857.730   123989691.098    93439117.893   100751773.157                          46.000          33.000          46.000
C44  24039690.938    24039688.273    24039682.344                       62627.539   125181009.636    94336929.784   101719803.370                          45.000          31.000          44.000
C60  40584894.727                    40584871.324                       65024.020   211336245.954                   171727871.391                          36.000                          39.000
E04  28843235.281                    28843238.523    28843239.027        2574.348   151572224.238                   116139766.965   114663416.540          36.000                          38.000          39.000
E11  23837810.125    23837806.867    23837810.547    23837810.727        1422.301   125268548.521    93544676.028    95984996.646    94764851.116          45.000          30.000          45.000          45.000
E12  21975367.070    21975365.145    21975367.828    21975367.965       64770.859   115481349.950    86236051.479    88485720.285    87360906.655          49.000          36.000          52.000          53.000
E19  25998984.219    25998983.902    25998987.086    25998987.539        1722.012   136625586.427   102025583.220   104687148.271   103356386.020          40.000          27.000          42.000          43.000
E24  25830236.305    25830236.762    25830238.832    25830239.430       62706.902   135738802.682   101363361.118   104007662.287   102685532.478          48.000          32.000          50.000          51.000
E25  25743084.906    25743086.297    25743088.734    25743089.207       65472.312   135280818.546   101021385.310   103656739.847   102339076.854          47.000          32.000          49.000          50.000
E33  26264805.008    26264803.898    26264806.965    26264807.465       62937.758   138022495.822   103068746.431   105757511.691   104413145.342          44.000          32.000          47.000          48.000
G08  22014436.625    22014444.398        2104.352   115686636.810    90145477.104          47.000          45.000
G10  20872942.766    20872948.840         480.395   109688192.909    85471261.794          55.000          49.000
G15  24200845.078    24200849.074       63628.145   127176248.619    99098443.615          40.000          36.000
G16  22024032.875    22024036.402       62501.191   115736967.355    90184750.227          47.000          39.000
G18  23170481.305    23170486.098       62147.598   121761648.929    94879289.600          41.000          41.000
G21  24080444.289    24080448.602        2200.039   126543522.216    98605424.472          37.000          21.000
G23  21229739.219    21229743.668       63611.902   111562992.481    86932277.130          48.000          48.000
G26  24235624.383    24235632.371       61474.348   127358969.313    99240868.807          38.000          35.000
G32  25577481.547    25577488.582        2781.883   134410468.644   104735535.263          36.000          32.000
R04  21451624.094    21451635.852       63094.246   114872483.342    89345333.315          48.000          48.000
R05  20491415.383    20491426.469        1609.004   109538381.358    85196568.416          53.000          51.000
R06  23652061.273                        4121.914   126211959.956                          30.000
R10  23195187.766                       61035.980   123643382.952                          42.000
R12  23220650.766    23220661.844        1943.582   124040533.357    96476020.421          45.000          44.000
R19  23427501.273    23427511.367       61915.613   125321317.529    97472189.575          33.000          40.000
R20  19787207.391    19787219.301       64382.312   105811009.976    82297608.504          43.000          53.000
R21  21500950.609    21500960.578        2236.102   115055876.627    89488003.540          49.000          47.000
> 2021 12 21 00 01 30.0000000  0 43
C05  39027023.633                    39027013.598    39027020.570       65106.129   203223914.816                   165136063.810   157145642.820          36.000                          38.000          40.000
C06  40649318.273                    40649305.902    40649315.871        1549.051   211671664.485                   172000519.820   163677957.879          34.000                          32.000          38.000
C09  41537831.945                    41537819.492    41537830.387        1579.086   216298384.695                   175760111.784   167255634.833          34.000                          30.000          34.000
C11  22192679.281                    22192668.980    22192678.227         731.664   115563135.621                    93904472.086    89360750.398          50.000                          51.000          53.000
C12  22640041.414                    22640030.270    22640039.750       63595.430   117892670.109                    95797410.356    91162094.419          48.000                          50.000          52.000
C13  39898017.461                    39898009.191    39898020.352       64194.203   207759459.241                   168821554.152   160652815.511          39.000                          36.000          38.000
C14  26782585.766                    26782573.633    26782583.875        3095.590   139463950.987                   113325836.239   107842369.242          30.000                          33.000          34.000
C16  40700271.523                    40700263.090    40700274.258        1392.391   211936997.445                   172216133.896   163883139.787          36.000                          35.000          38.000
C21  22994707.484    22994703.660    22994694.348                         921.539   119739496.378    90236149.771    97298095.215                          51.000          38.000          50.000
C22  24413260.406    24413253.609    24413246.648                       63364.691   127126275.693    95802850.546   103300463.137                          46.000          32.000          46.000
C23  25582185.602    25582176.906    25582169.480                       63863.188   133213148.797   100389920.663   108246526.171                          40.000          27.000          41.000
C25  26357115.609    26357112.199    26357107.133                       62252.773   137248400.542   103430924.731   111525523.933                          38.000          25.000          39.000
C34  21787058.727    21787057.582    21787052.266                       65018.738   113450969.432    85497098.887    92188182.092                          53.000          39.000          53.000
C37  26827668.625    26827670.730    26827664.160                         657.012   139698717.704   105277515.871   113516625.764                          37.000          25.000          38.000
C39  40249050.492    40249047.000    40249041.547                        1211.082   209587386.059   157945892.122   170306873.298                          36.000          26.000          38.000
C42  25269219.297    25269227.414    25269220.691                        2951.422   131583468.552    99161857.311   106922344.511                          41.000          29.000          43.000
C43  23800225.781    23800225.066    23800217.914                        1852.562   123934037.071    93397176.802   100706549.714                          47.000          33.000          46.000
C44  24056463.656    24056461.164    24056455.352                       62621.742   125268350.963    94402750.570   101790775.345                          44.000          31.000          44.000
C60  40587845.102                    40587822.105                       65023.578   211351611.093                   171740356.823                          35.000                          39.000
E04  28828530.445                    28828533.672    28828534.344        2577.180   151494950.521                   116080557.206   114604959.441          36.000                          39.000          40.000
E11  23829702.688    23829699.707    23829703.301    23829703.469        1418.000   125225944.567    93512861.399    95952352.066    94732621.514          45.000          30.000          45.000          45.000
E12  21979753.445    21979751.262    21979754.305    21979754.430       64764.336   115504400.958    86253264.896    88503382.745    87378344.595          49.000          36.000          52.000          53.000
E19  25989181.109    25989180.535    25989183.660    25989184.035        1712.309   136574068.774   101987112.266   104647673.723   103317413.275          41.000          26.000          42.000          43.000
E24  25846414.750    25846414.730    25846417.145    25846417.625       62697.273   135823819.728   101426847.849   104072805.191   102749847.294          48.000          33.000          50.000          50.000
E25  25743491.562    25743492.910    25743495.578    25743496.008       65457.113   135282956.131   101022981.566   103658377.738   102340693.929          47.000          32.000          49.000          50.000
E33  26279644.656    26279644.086    26279647.215    26279647.594       62935.324   138100480.938   103126982.046   105817266.506   104472140.557          44.000          32.000          47.000          48.000
G08  22002449.375    22002457.223        2095.160   115623643.473    90096391.389          47.000          45.000
G10  20870253.062    20870259.215         461.836   109674057.580    85460247.257          56.000          49.000
G15  24211791.391    24211795.402       63609.016   127233772.320    99143267.273          39.000          36.000
G16  22041400.422    22041403.633       62486.504   115828232.252    90255865.722          48.000          39.000
G18  23189836.336    23189840.586       62143.676   121863358.832    94958544.057          42.000          41.000
G21  24067898.805    24067901.957        2195.129   126477593.562    98554051.506          37.000          20.000
G23  21240773.789    21240777.910       63594.340   111620978.559    86977461.092          50.000          48.000
G26  24258817.141    24258825.535       61472.285   127480849.341    99335840.271          38.000          36.000
G32  25561592.227    25561599.684        2784.684   134326970.406   104670471.666          37.000          34.000
R04  21465372.617    21465384.742       63069.590   114946105.961    89402595.359          49.000          48.000
R05  20482455.828    20482466.086        1584.070   109490484.446    85159315.280          53.000          52.000
R06  23628895.445                        4119.648   126088337.547                          31.000
R10  23220531.305                       61029.625   123778479.849                          43.000
R12  23209797.250    23209808.043        1921.988   123982550.716    96430922.795          46.000          44.000
R19  23447816.398    23447825.895       61911.781   125429985.784    97556709.283          33.000          40.000
R20  19793714.383    19793725.785       64370.172   105845803.946    82324670.478          44.000          53.000
R21  21488430.766    21488441.973        2230.078   114988883.114    89435897.477          49.000          47.000
> 2021 12 21 00 02 00.0000000  0 44
C02  40523181.219                    40523170.488    40523175.750       65094.844   211014818.286                   171466794.999   163170039.886          31.000                          36.000          38.000
C05  39029499.406                    39029489.273    39029496.203       65106.469   203236806.529                   165146539.378   157155611.510          36.000                          38.000          41.000
C06  40640398.211                    40640385.305    40640395.152        1547.418   211625212.216                   171962773.541   163642038.033          34.000                          33.000          36.000
C09  41528735.305                    41528723.340    41528734.352        1578.293   216251016.048                   175721620.880   167219006.372          33.000                          31.000          33.000
C11  22188484.500                    22188474.059    22188483.328         724.312   115541291.536                    93886721.983    89343859.166          50.000                          51.000          53.000
C12  22651243.422                    22651232.402    22651241.949       63587.543   117951002.164                    95844809.929    91207200.458          48.000                          50.000          52.000
C13  39905743.484                    39905735.852    39905746.852       64195.492   207799693.200                   168854247.532   160683926.958          38.000                          36.000          39.000
C14  26764745.305                    26764733.672    26764743.602        3097.402   139371053.218                   113250349.139   107770534.758          32.000                          32.000          33.000
C16  40692256.922                    40692248.074    40692259.043        1389.965   211895260.967                   172182219.612   163850866.521          35.000                          35.000          39.000
C21  22989442.148    22989438.730    22989429.281                         905.957   119712079.938    90215488.639    97275817.117                          51.000          38.000          50.000
C22  24425810.133    24425803.809    24425796.113                       63350.496   127191624.840    95852097.935   103353564.677                          45.000          32.000          45.000
C23  25591860.734    25591852.453    25591845.184                       63849.605   133263532.265   100427889.845   108287466.863                          41.000          27.000          42.000
C25  26376036.289    26376033.512    26376028.500                       62250.562   137346929.126   103505176.273   111605586.472                          38.000          26.000          39.000
C34  21790065.594    21790064.465    21790059.234                       65009.176   113466627.439    85508898.818    92200905.506                          53.000          39.000          52.000
C37  26823924.484    26823926.738    26823920.230                         642.559   139679221.116   105262823.162   113500783.185                          38.000          26.000          37.000
C39  40242083.250    40242079.598    40242074.230                        1207.324   209551106.115   157918551.421   170277392.897                          37.000          24.000          38.000
C42  25252225.680    25252233.422    25252227.004                        2947.770   131494977.485    99095170.100   106850438.301                          42.000          29.000          42.000
C43  23789564.773    23789563.816    23789556.691                        1848.207   123878521.846    93355340.286   100661439.045                          47.000          34.000          46.000
C44  24073267.750    24073265.012    24073259.078                       62616.656   125355852.470    94468692.049   101861877.479                          44.000          29.000          44.000
C60  40590794.992                    40590771.898                       65023.953   211366971.851                   171752838.698                          36.000                          38.000
E04  28813807.109                    28813810.184    28813810.883        2580.699   151417578.389                   116021272.044   114546427.906          37.000                          38.000          39.000
E11  23821617.516    23821614.410    23821618.027    23821618.246        1414.281   125183456.517    93481133.350    95919796.316    94700479.607          44.000          31.000          45.000          45.000
E12  21984174.414    21984172.254    21984175.094    21984175.305       64758.652   115527632.927    86270613.451    88521183.869    87395919.432          49.000          37.000          53.000          53.000
E19  25979430.148    25979429.797    25979432.922    25979433.359        1703.422   136522828.816   101948848.662   104608411.939   103278650.578          40.000          26.000          43.000          43.000
E24  25862645.156    25862645.410    25862647.492    25862647.984       62688.469   135909111.343   101490539.631   104138158.488   102814369.838          48.000          33.000          49.000          50.000
E25  25743982.719    25743983.801    25743986.566    25743987.090       65442.559   135285536.715   101024908.620   103660355.066   102342646.119          46.000          32.000          49.000          49.000
E33  26294496.219    26294495.449    26294498.648    26294499.051       62933.594   138178525.477   103185262.048   105877066.862   104531180.733          44.000          31.000          47.000          48.000
G08  21990512.602    21990520.391        2086.418   115560916.464    90047513.194          47.000          45.000
G10  20867665.250    20867671.727         444.336   109660460.079    85449651.808          55.000          49.000
G15  24222844.703    24222848.492       63590.598   127291857.022    99188528.102          39.000          35.000
G16  22058847.969    22058851.188       62472.801   115919919.901    90327310.630          48.000          39.000
G18  23209210.688    23209215.023       62140.543   121965171.968    95037878.962          41.000          42.000
G21  24055378.531    24055382.383        2190.902   126411801.260    98502784.798          37.000          20.000
G23  21251905.320    21251909.383       63577.652   111679475.230    87023042.922          49.000          48.000
G26  24282019.039    24282027.016       61471.129   127602774.436    99430846.811          37.000          36.000
G32  25545684.484    25545691.379        2788.254   134243374.210   104605331.777          35.000          33.000
R04  21479256.562    21479268.281       63045.809   115020452.352    89460420.332          49.000          48.000
R05  20473632.820    20473643.625        1559.785   109443322.705    85122633.933          53.000          52.000
R06  23605735.094                        4118.715   125964756.223                          31.000
R10  23245907.234                       61024.242   123913748.222                          43.000
R12  23199060.609    23199070.922        1901.117   123925201.373    96386317.744          46.000          44.000
R19  23468148.727    23468160.242       61908.820   125538754.123    97641306.873          33.000          40.000
R20  19800285.945    19800298.422       64358.691   105880948.668    82352005.256          44.000          52.000
R21  21475942.766    21475953.855        2224.777   114922055.951    89383920.812          49.000          48.000
> 2021 12 21 00 02 30.0000000  0 43
C05  39031975.562                    39031965.113    39031972.078       65105.938   203249699.001                   165157015.570   157165580.792          36.000                          38.000          41.000
C06  40631489.703                    40631477.133    40631486.160        1545.152   211578824.137                   171925079.441   163606167.851          34.000                          32.000          36.000
C09  41519642.141                    41519630.512    41519641.793        1577.781   216203668.305                   175683146.982   167182394.111          32.000                          32.000          34.000
C11  22184334.180                    22184323.758    22184332.996         716.234   115519679.993                    93869160.828    89327147.755          51.000                          51.000          52.000
C12  22662492.875                    22662481.824    22662491.371       63578.977   118009581.267                    95892410.241    91252497.529          48.000                          50.000          51.000
C13  39913464.203                    39913456.359    39913467.340       64196.062   207839894.865                   168886914.666   160715013.429          38.000                          36.000          38.000
C14  26746894.992                    26746882.664    26746892.504        3099.176   139278097.951                   113174815.390   107698655.838          32.000                          33.000          34.000
C16  40684259.297                    40684250.445    40684261.773        1386.414   211853617.091                   172148380.559   163818664.846          35.000                          34.000          39.000
C21  22984268.484    22984265.430    22984256.055                         889.723   119685141.171    90195187.477    97253927.168                          52.000          37.000          50.000
C22  24438443.055    24438436.332    24438428.730                       63335.809   127257405.967    95901670.870   103407017.225                          46.000          32.000          46.000
C23  25601616.844    25601608.008    25601600.910                       63835.500   133314331.790   100466172.569   108328745.637                          41.000          27.000          42.000
C25  26394971.438    26394968.938    26394963.730                       62247.645   137445530.978   103579483.009   111685708.548                          37.000          25.000          39.000
C34  21793129.812    21793128.582    21793123.375                       64998.875   113482583.203    85520923.154    92213870.872                          54.000          39.000          52.000
C37  26820266.047    26820268.184    26820261.684                         627.301   139660171.236   105248467.078   113485303.561                          38.000          23.000          37.000
C39  40235140.227    40235136.559    40235130.984                        1202.867   209514950.237   157891304.218   170248013.301                          37.000          25.000          38.000
C42  25235254.523    25235262.625    25235255.977                        2943.488   131406605.769    99028572.831   106778629.054                          42.000          29.000          42.000
C43  23778930.688    23778929.863    23778922.523                        1843.203   123823147.515    93313609.957   100616442.859                          46.000          33.000          45.000
C44  24090102.109    24090099.762    24090093.742                       62610.930   125443514.941    94534754.850   101933110.398                          44.000          31.000          44.000
C60  40593744.305                    40593721.254                       65023.875   211382329.377                   171765317.947                          36.000                          39.000
E04  28799065.359                    28799068.562    28799069.195        2583.555   151340110.812                   115961913.746   114487824.167          36.000                          39.000          40.000
E11  23813554.867    23813551.492    23813554.984    23813555.238        1410.102   125141085.540    93449492.691    95887330.255    94668426.253          44.000          30.000          45.000          45.000
E12  21988629.812    21988627.855    21988630.613    21988630.824       64752.133   115551046.807    86288097.840    88539124.378    87413631.887          49.000          37.000          52.000          53.000
E19  25969733.219    25969732.617    25969735.582    25969736.152        1693.617   136471869.529   101910794.669   104569365.237   103240100.228          41.000          26.000          43.000          43.000
E24  25878927.672    25878927.824    25878930.078    25878930.496       62678.910   135994676.907   101554435.979   104203721.693   102879099.614          48.000          33.000          49.000          50.000
E25  25744558.273    25744559.363    25744562.223    25744562.719       65427.480   135288561.767   101027167.570   103662672.956   102344934.543          46.000          32.000          49.000          49.000
E33  26309359.094    26309358.535    26309361.566    26309362.000       62931.219   138256630.322   103243587.069   105936913.418   104590266.524          43.000          31.000          48.000          48.000
G08  21978627.625    21978634.969        2077.145   115498458.154    89998844.385          46.000          44.000
G10  20865180.516    20865186.875         425.992   109647402.000    85439476.689          55.000          51.000
G15  24234004.234    24234008.613       63571.668   127350502.113    99234225.571          38.000          36.000
G16  22076375.742    22076379.086       62458.398   116012028.838    90399083.818          48.000          39.000
G18  23228605.141    23228609.180       62136.832   122067088.443    95117294.395          41.000          41.000
G21  24042885.797    24042888.387        2185.977   126346146.833    98451625.494          38.000          21.000
G23  21263133.641    21263138.312       63560.371   111738481.806    87069022.076          50.000          48.000
G26  24305229.000    24305237.172       61469.234   127724743.169    99525887.348          37.000          35.000
G32  25529758.484    25529765.902        2790.949   134159683.751   104540118.432          37.000          33.000
R04  21493274.938    21493286.320       63021.387   115095520.841    89518806.928          49.000          48.000
R05  20464948.742    20464959.156        1534.719   109396900.420    85086527.718          54.000          51.000
R06  23582584.227                        4116.938   125841221.180                          31.000
R10  23271314.461                       61018.422   124049184.761                          42.000
R12  23188444.570    23188454.484        1879.488   123868489.719    96342208.665          45.000          44.000
R19  23488500.320    23488510.871       61905.055   125647623.307    97725982.906          34.000          39.000
R20  19806924.078    19806936.637       64346.648   105916444.924    82379613.454          44.000          53.000
R21  21463485.703    21463497.090        2218.863   114855397.246    89332075.161          49.000          48.000
> 2021 12 21 00 03 00.0000000  0 43
C05  39034453.508                    39034442.637    39034449.500       65105.922   203262600.548                   165167499.146   157175557.095          36.000                          38.000          41.000
C06  40622595.156                    40622583.109    40622592.031        1542.719   211532509.137                   171887444.707   163570354.164          34.000                          33.000          36.000
C09  41510555.086                    41510543.383    41510555.453        1576.664   216156350.526                   175644697.414   167145804.981          32.000                          32.000          35.000
C11  22180230.344                    22180219.844    22180229.316         708.434   115498310.121                    93851796.054    89310623.213          50.000                          50.000          53.000
