     3.04           OBSERVATION DATA    M (MIXED)           RINEX VERSION / TYPE
TPP 4.5.0                               20211220 235959 UTC PGM / RUN BY / DATE
CHIO                                                        MARKER NAME
19194M001                                                   MARKER NUMBER
SOME COMMENTS FOR TESTING PURPOSES                          COMMENT
OS Net              Ordnance Survey                         OBSERVER / AGENCY
3022730             SEPT POLARX5        5.4.0               REC # / TYPE / VERS
08420005            LEIAR25         LEIT                    ANT # / TYPE
        0.5334        0.0000        0.0000                  ANTENNA: DELTA H/E/N
  4007952.9623  -100634.2663  4944058.9468                  APPROX POSITION XYZ
C   12 C2X C6X C7X D2X D6X D7X L2X L6X L7X S2X S6X S7X      SYS / # / OBS TYPES
E   16 C1C C5Q C7Q C8Q D1C D5Q D7Q D8Q L1C L5Q L7Q L8Q S1C  SYS / # / OBS TYPES
       S5Q S7Q S8Q                                          SYS / # / OBS TYPES
G   16 C1C C2L C2W C5Q D1C D2L D2W D5Q L1C L2L L2W L5Q S1C  SYS / # / OBS TYPES
       S2L S2W S5Q                                          SYS / # / OBS TYPES
R   16 C1C C1P C2C C2P D1C D1P D2C D2P L1C L1P L2C L2P S1C  SYS / # / OBS TYPES
       S1P S2C S2P                                          SYS / # / OBS TYPES
    18  2189     2                                          LEAP SECONDS
 C1C    0.000 C1P    0.000 C2C    0.000 C2P    0.000        GLONASS COD/PHS/BIS
 24 R01  1 R02 -4 R03  5 R04  6 R05  1 R06 -4 R07  5 R08  6 GLONASS SLOT / FRQ #
    R09 -2 R10 -7 R11  0 R12 -1 R13 -2 R14 -7 R15  0 R16 -1 GLONASS SLOT / FRQ #
    R17  4 R18 -3 R19  3 R20  2 R21  4 R22 -3 R23  3 R24  2 GLONASS SLOT / FRQ #
     0                                                      RCV CLOCK OFFS APPL
   110                                                      # OF SATELLITES
   C05  2880  2880  2880  2880  2880  2880  2880  2880  2880PRN / # OF OBS
        2880  2880  2880                                    PRN / # OF OBS
   C06   901   883   875   901   883   875   901   883   875PRN / # OF OBS
         901   883   875                                    PRN / # OF OBS
   C07   873   873   875   873   873   875   873   873   875PRN / # OF OBS
         873   873   875                                    PRN / # OF OBS
   C08   943   949   942   943   949   942   943   949   942PRN / # OF OBS
         943   949   942                                    PRN / # OF OBS
   C09  1057  1058  1057  1057  1058  1057  1057  1058  1057PRN / # OF OBS
        1057  1058  1057                                    PRN / # OF OBS
   C10  1073  1082  1075  1073  1082  1075  1073  1082  1075PRN / # OF OBS
        1073  1082  1075                                    PRN / # OF OBS
   C11   861   868   871   861   868   871   861   868   871PRN / # OF OBS
         861   868   871                                    PRN / # OF OBS
   C12   827   845   845   827   845   845   827   845   845PRN / # OF OBS
         827   845   845                                    PRN / # OF OBS
   C13  1051  1047  1037  1051  1047  1037  1051  1047  1037PRN / # OF OBS
        1051  1047  1037                                    PRN / # OF OBS
   C14  1116  1121  1121  1116  1121  1121  1116  1121  1121PRN / # OF OBS
        1116  1121  1121                                    PRN / # OF OBS
   C16   840   824   834   840   824   834   840   824   834PRN / # OF OBS
         840   824   834                                    PRN / # OF OBS
   C19  1096  1093        1096  1093        1096  1093      PRN / # OF OBS
        1096  1093                                          PRN / # OF OBS
   C20  1246  1244        1246  1244        1246  1244      PRN / # OF OBS
        1246  1244                                          PRN / # OF OBS
   C21  1011  1010        1011  1010        1011  1010      PRN / # OF OBS
        1011  1010                                          PRN / # OF OBS
   C22  1042  1043        1042  1043        1042  1043      PRN / # OF OBS
        1042  1043                                          PRN / # OF OBS
   C23  1045  1043        1045  1043        1045  1043      PRN / # OF OBS
        1045  1043                                          PRN / # OF OBS
   C24  1039  1039        1039  1039        1039  1039      PRN / # OF OBS
        1039  1039                                          PRN / # OF OBS
   C25  1032  1031        1032  1031        1032  1031      PRN / # OF OBS
        1032  1031                                          PRN / # OF OBS
   C26  1120  1119        1120  1119        1120  1119      PRN / # OF OBS
        1120  1119                                          PRN / # OF OBS
   C27  1302  1296        1302  1296        1302  1296      PRN / # OF OBS
        1302  1296                                          PRN / # OF OBS
   C28  1242  1235        1242  1235        1242  1235      PRN / # OF OBS
        1242  1235                                          PRN / # OF OBS
   C29  1281  1285        1281  1285        1281  1285      PRN / # OF OBS
        1281  1285                                          PRN / # OF OBS
   C30  1303  1307        1303  1307        1303  1307      PRN / # OF OBS
        1303  1307                                          PRN / # OF OBS
   C32  1165  1176        1165  1176        1165  1176      PRN / # OF OBS
        1165  1176                                          PRN / # OF OBS
   C33  1111  1110        1111  1110        1111  1110      PRN / # OF OBS
        1111  1110                                          PRN / # OF OBS
   C34   832   832         832   832         832   832      PRN / # OF OBS
         832   832                                          PRN / # OF OBS
   C35  1105  1111        1105  1111        1105  1111      PRN / # OF OBS
        1105  1111                                          PRN / # OF OBS
   C36  1123  1121        1123  1121        1123  1121      PRN / # OF OBS
        1123  1121                                          PRN / # OF OBS
   C37  1150  1150        1150  1150        1150  1150      PRN / # OF OBS
        1150  1150                                          PRN / # OF OBS
   C38   796   793         796   793         796   793      PRN / # OF OBS
         796   793                                          PRN / # OF OBS
   C39   799   800         799   800         799   800      PRN / # OF OBS
         799   800                                          PRN / # OF OBS
   C40   801   802         801   802         801   802      PRN / # OF OBS
         801   802                                          PRN / # OF OBS
   C41  1107  1108        1107  1108        1107  1108      PRN / # OF OBS
        1107  1108                                          PRN / # OF OBS
   C42  1076  1079        1076  1079        1076  1079      PRN / # OF OBS
        1076  1079                                          PRN / # OF OBS
   C43   864   861         864   861         864   861      PRN / # OF OBS
         864   861                                          PRN / # OF OBS
   C44   848   850         848   850         848   850      PRN / # OF OBS
         848   850                                          PRN / # OF OBS
   C45  1080  1085        1080  1085        1080  1085      PRN / # OF OBS
        1080  1085                                          PRN / # OF OBS
   C46  1215  1209        1215  1209        1215  1209      PRN / # OF OBS
        1215  1209                                          PRN / # OF OBS
   E01   848   854   852   868   848   854   852   868   848PRN / # OF OBS
         854   852   868   848   854   852   868            PRN / # OF OBS
   E02  1443  1439  1443  1430  1443  1439  1443  1430  1443PRN / # OF OBS
        1439  1443  1430  1443  1439  1443  1430            PRN / # OF OBS
   E03  1272  1269  1272  1252  1272  1269  1272  1252  1272PRN / # OF OBS
        1269  1272  1252  1272  1269  1272  1252            PRN / # OF OBS
   E04  1139  1139  1144  1144  1139  1139  1144  1144  1139PRN / # OF OBS
        1139  1144  1144  1139  1139  1144  1144            PRN / # OF OBS
   E05  1232  1229  1233  1231  1232  1229  1233  1231  1232PRN / # OF OBS
        1229  1233  1231  1232  1229  1233  1231            PRN / # OF OBS
   E07   916   941   930   937   916   941   930   937   916PRN / # OF OBS
         941   930   937   916   941   930   937            PRN / # OF OBS
   E08  1146  1143  1148  1147  1146  1143  1148  1147  1146PRN / # OF OBS
        1143  1148  1147  1146  1143  1148  1147            PRN / # OF OBS
   E09  1144  1155  1153  1151  1144  1155  1153  1151  1144PRN / # OF OBS
        1155  1153  1151  1144  1155  1153  1151            PRN / # OF OBS
   E11  1042  1045  1049  1042  1042  1045  1049  1042  1042PRN / # OF OBS
        1045  1049  1042  1042  1045  1049  1042            PRN / # OF OBS
   E12   681   686   685   691   681   686   685   691   681PRN / # OF OBS
         686   685   691   681   686   685   691            PRN / # OF OBS
   E13  1290  1289  1289  1286  1290  1289  1289  1286  1290PRN / # OF OBS
        1289  1289  1286  1290  1289  1289  1286            PRN / # OF OBS
   E15  1538  1537  1540  1526  1538  1537  1540  1526  1538PRN / # OF OBS
        1537  1540  1526  1538  1537  1540  1526            PRN / # OF OBS
   E19  1061  1061  1059  1062  1061  1061  1059  1062  1061PRN / # OF OBS
        1061  1059  1062  1061  1061  1059  1062            PRN / # OF OBS
   E21  1109  1115  1112  1113  1109  1115  1112  1113  1109PRN / # OF OBS
        1115  1112  1113  1109  1115  1112  1113            PRN / # OF OBS
   E24   826   827   827   828   826   827   827   828   826PRN / # OF OBS
         827   827   828   826   827   827   828            PRN / # OF OBS
   E25  1171  1172  1176  1160  1171  1172  1176  1160  1171PRN / # OF OBS
        1172  1176  1160  1171  1172  1176  1160            PRN / # OF OBS
   E26   884   879   885   877   884   879   885   877   884PRN / # OF OBS
         879   885   877   884   879   885   877            PRN / # OF OBS
   E27  1345  1343  1341  1349  1345  1343  1341  1349  1345PRN / # OF OBS
        1343  1341  1349  1345  1343  1341  1349            PRN / # OF OBS
   E30  1479  1476  1480  1472  1479  1476  1480  1472  1479PRN / # OF OBS
        1476  1480  1472  1479  1476  1480  1472            PRN / # OF OBS
   E31   716   716   714   717   716   716   714   717   716PRN / # OF OBS
         716   714   717   716   716   714   717            PRN / # OF OBS
   E33   606   610   611   628   606   610   611   628   606PRN / # OF OBS
         610   611   628   606   610   611   628            PRN / # OF OBS
   E36  1474  1470  1474  1460  1474  1470  1474  1460  1474PRN / # OF OBS
        1470  1474  1460  1474  1470  1474  1460            PRN / # OF OBS
   G01   803   808   803   807   803   808   803   807   803PRN / # OF OBS
         808   803   807   803   808   803   807            PRN / # OF OBS
   G02  1137        1137        1137        1137        1137PRN / # OF OBS
              1137        1137        1137                  PRN / # OF OBS
   G03   983   967   981   984   983   967   981   984   983PRN / # OF OBS
         967   981   984   983   967   981   984            PRN / # OF OBS
   G04  1030  1024  1028  1041  1030  1024  1028  1041  1030PRN / # OF OBS
        1024  1028  1041  1030  1024  1028  1041            PRN / # OF OBS
   G05  1030  1029  1030        1030  1029  1030        1030PRN / # OF OBS
        1029  1030        1030  1029  1030                  PRN / # OF OBS
   G06  1088  1086  1088  1088  1088  1086  1088  1088  1088PRN / # OF OBS
        1086  1088  1088  1088  1086  1088  1088            PRN / # OF OBS
   G07  1109  1104  1109        1109  1104  1109        1109PRN / # OF OBS
        1104  1109        1109  1104  1109                  PRN / # OF OBS
   G08   929   930   928   929   929   930   928   929   929PRN / # OF OBS
         930   928   929   929   930   928   929            PRN / # OF OBS
   G09   953   953   953   953   953   953   953   953   953PRN / # OF OBS
         953   953   953   953   953   953   953            PRN / # OF OBS
   G10  1136  1134  1135  1138  1136  1134  1135  1138  1136PRN / # OF OBS
        1134  1135  1138  1136  1134  1135  1138            PRN / # OF OBS
   G12   918   909   918         918   909   918         918PRN / # OF OBS
         909   918         918   909   918                  PRN / # OF OBS
   G13   764         764         764         764         764PRN / # OF OBS
               764         764         764                  PRN / # OF OBS
   G14  1059  1059  1059  1054  1059  1059  1059  1054  1059PRN / # OF OBS
        1059  1059  1054  1059  1059  1059  1054            PRN / # OF OBS
   G15  1007   992  1007        1007   992  1007        1007PRN / # OF OBS
         992  1007        1007   992  1007                  PRN / # OF OBS
   G16   990         990         990         990         990PRN / # OF OBS
               990         990         990                  PRN / # OF OBS
   G17  1140  1133  1140        1140  1133  1140        1140PRN / # OF OBS
        1133  1140        1140  1133  1140                  PRN / # OF OBS
   G18  1077  1076  1076  1076  1077  1076  1076  1076  1077PRN / # OF OBS
        1076  1076  1076  1077  1076  1076  1076            PRN / # OF OBS
   G19  1083        1081        1083        1081        1083PRN / # OF OBS
              1081        1083        1081                  PRN / # OF OBS
   G20  1031        1028        1031        1028        1031PRN / # OF OBS
              1028        1031        1028                  PRN / # OF OBS
   G21   908         892         908         892         908PRN / # OF OBS
               892         908         892                  PRN / # OF OBS
   G23  1122  1126  1121  1126  1122  1126  1121  1126  1122PRN / # OF OBS
        1126  1121  1126  1122  1126  1121  1126            PRN / # OF OBS
   G24   837   835   836   888   837   835   836   888   837PRN / # OF OBS
         835   836   888   837   835   836   888            PRN / # OF OBS
   G25   825   820   822   824   825   820   822   824   825PRN / # OF OBS
         820   822   824   825   820   822   824            PRN / # OF OBS
   G26   921   916   920   921   921   916   920   921   921PRN / # OF OBS
         916   920   921   921   916   920   921            PRN / # OF OBS
   G29  1016  1011  1016        1016  1011  1016        1016PRN / # OF OBS
        1011  1016        1016  1011  1016                  PRN / # OF OBS
   G30  1058  1053  1057  1057  1058  1053  1057  1057  1058PRN / # OF OBS
        1053  1057  1057  1058  1053  1057  1057            PRN / # OF OBS
   G31  1097  1085  1096        1097  1085  1096        1097PRN / # OF OBS
        1085  1096        1097  1085  1096                  PRN / # OF OBS
   G32  1084  1084  1084  1083  1084  1084  1084  1083  1084PRN / # OF OBS
        1084  1084  1083  1084  1084  1084  1083            PRN / # OF OBS
   R01  1063  1059  1036  1025  1063  1059  1036  1025  1063PRN / # OF OBS
        1059  1036  1025  1063  1059  1036  1025            PRN / # OF OBS
   R02  1058  1058  1053  1053  1058  1058  1053  1053  1058PRN / # OF OBS
        1058  1053  1053  1058  1058  1053  1053            PRN / # OF OBS
   R03  1031  1031  1029  1022  1031  1031  1029  1022  1031PRN / # OF OBS
        1031  1029  1022  1031  1031  1029  1022            PRN / # OF OBS
   R04  1196  1197  1194  1191  1196  1197  1194  1191  1196PRN / # OF OBS
        1197  1194  1191  1196  1197  1194  1191            PRN / # OF OBS
   R05  1227  1228  1222  1218  1227  1228  1222  1218  1227PRN / # OF OBS
        1228  1222  1218  1227  1228  1222  1218            PRN / # OF OBS
   R06  1250  1250              1250  1250              1250PRN / # OF OBS
        1250              1250  1250                        PRN / # OF OBS
   R07  1126  1125  1122  1118  1126  1125  1122  1118  1126PRN / # OF OBS
        1125  1122  1118  1126  1125  1122  1118            PRN / # OF OBS
   R08  1093  1092  1092  1091  1093  1092  1092  1091  1093PRN / # OF OBS
        1092  1092  1091  1093  1092  1092  1091            PRN / # OF OBS
   R09  1082  1083  1083  1081  1082  1083  1083  1081  1082PRN / # OF OBS
        1083  1083  1081  1082  1083  1083  1081            PRN / # OF OBS
   R10  1181  1179              1181  1179              1181PRN / # OF OBS
        1179              1181  1179                        PRN / # OF OBS
   R12  1244  1244  1242  1242  1244  1244  1242  1242  1244PRN / # OF OBS
        1244  1242  1242  1244  1244  1242  1242            PRN / # OF OBS
   R13  1133  1129  1137  1134  1133  1129  1137  1134  1133PRN / # OF OBS
        1129  1137  1134  1133  1129  1137  1134            PRN / # OF OBS
   R14   959   958   950   941   959   958   950   941   959PRN / # OF OBS
         958   950   941   959   958   950   941            PRN / # OF OBS
   R15  1041  1041  1039  1038  1041  1041  1039  1038  1041PRN / # OF OBS
        1041  1039  1038  1041  1041  1039  1038            PRN / # OF OBS
   R17  1046  1045  1042  1042  1046  1045  1042  1042  1046PRN / # OF OBS
        1045  1042  1042  1046  1045  1042  1042            PRN / # OF OBS
   R18  1042  1042  1041  1040  1042  1042  1041  1040  1042PRN / # OF OBS
        1042  1041  1040  1042  1042  1041  1040            PRN / # OF OBS
   R19  1010  1008  1018  1013  1010  1008  1018  1013  1010PRN / # OF OBS
        1008  1018  1013  1010  1008  1018  1013            PRN / # OF OBS
   R20  1253  1246  1259  1253  1253  1246  1259  1253  1253PRN / # OF OBS
        1246  1259  1253  1253  1246  1259  1253            PRN / # OF OBS
   R21  1282  1282  1277  1274  1282  1282  1277  1274  1282PRN / # OF OBS
        1282  1277  1274  1282  1282  1277  1274            PRN / # OF OBS
   R22  1178  1177   876   840  1178  1177   876   840  1178PRN / # OF OBS
        1177   876   840  1178  1177   876   840            PRN / # OF OBS
   R23  1021  1021              1021  1021              1021PRN / # OF OBS
        1021              1021  1021                        PRN / # OF OBS
   R24  1034  1034  1025  1017  1034  1034  1025  1017  1034PRN / # OF OBS
        1034  1025  1017  1034  1034  1025  1017            PRN / # OF OBS
    30.000                                                  INTERVAL
  2021    12    21     0     0    0.0000000     GPS         TIME OF FIRST OBS
  2021    12    21    23    59   30.0000000     GPS         TIME OF LAST OBS
                                                            END OF HEADER
> 2021 12 21 00 00 00.0000000  0 44        .000000000000
C05  40374581.705    40374581.989    40374578.697          14.279          11.619          10.939   210241048.643 6 170838070.925 6 162571696.636 6        38.000          37.563          37.188
C08  41461958.916    41461953.421    41461953.662       -1336.583       -1085.881       -1033.653   215903307.074 5 175439119.381 5 166950115.431 5        34.375          31.688          34.563
C11  21760373.377    21760372.439    21760372.383         277.449         225.452         214.520   113312013.489 7  92075292.396 8  87620053.781 8        47.188          52.375          52.563
C12  23546237.918    23546236.080    23546235.387       -2217.580       -1802.035       -1714.786   122611506.276 7  99631886.220 8  94810992.332 8        47.563          50.000          50.000
C13  40739660.612    40739662.981    40739663.720       -1203.177        -977.685        -930.395   212142117.757 6 172382866.961 6 164041760.879 6        40.500          38.563          38.938
C21  24085044.920    24085041.506                        1712.229        1391.351                   125417159.994 8 101911708.244 8                        49.313          48.750
C22  25101213.994    25101210.149                       -1183.158        -961.441                   130708623.355 7 106211455.635 7                        47.563          47.125
C23  24145286.266    24145280.213                       -1156.250        -939.557                   125730839.077 8 102166576.656 8                        49.125          49.750
C25  25478706.522    25478707.761                       -3150.400       -2559.964                   132674326.562 7 107808761.718 7                        47.063          44.188
C28  26749922.312    26749924.826                        2943.322        2391.475                   139293871.113 5 113187688.966 7                        34.125          42.688
C34  22006279.099    22006281.834                       -1003.971        -815.764                   114592519.010 8  93115841.175 8                        51.000          53.188
C37  25667560.007    25667564.503                        1564.423        1271.115                   133657729.630 7 108607878.707 7                        43.875          42.875
C39  41426325.542    41426326.170                        1840.307        1495.423                   215717749.561 5 175288339.909 6                        34.813          39.000
C42  25989700.719    25989711.538                        3361.901        2731.808                   135335188.524 7 109970972.682 7                        45.063          43.688
C43  22732906.886    22732908.223                        1681.298        1366.179                   118376239.056 8  96190404.016 8                        51.313          51.688
C44  25353748.123    25353749.190                       -2843.320       -2310.417                   132023656.669 7 107280061.825 7                        45.875          43.688
E02  27323396.910    27323395.819    27323394.934    27323394.541        2597.068        1939.445        1990.117        1964.794   143585440.242 7 107222892.858 6 110020000.574 6 108621454.803 7        42.063          37.313          40.438          42.063
E07  28912999.380    28913002.017    28912998.444    28912999.499       -1526.241       -1140.027       -1169.571       -1154.791   151938842.303 4 113460821.418 5 116420655.269 5 114940748.909 5        27.938          33.438          30.000          34.875
E11  22810033.381    22810029.741    22810028.585    22810029.909        1612.862        1204.406        1235.766        1220.088   119867554.544 7  89511477.436 7  91846567.288 7  90679020.930 8        44.875          45.813          47.313          49.625
E12  22143415.493    22143412.512    22143411.354    22143412.306       -1033.688        -771.935        -792.078        -782.002   116364483.868 7  86895577.778 7  89162400.433 8  88028995.178 8        43.813          47.375          49.375          51.438
E19  27415403.151    27415404.340    27415402.109    27415402.781        2418.692        1806.036        1853.226        1829.629   144068918.868 6 107583938.549 5 110390465.179 6 108987215.935 6        36.563          35.438          36.188          38.813
E24  25431701.674    25431700.650    25431699.324    25431700.635       -2527.563       -1887.420       -1936.675       -1912.046   133644533.721 7  99799536.246 7 102402978.668 8 101101245.027 8        47.563          45.688          49.438          50.750
E25  24570899.733    24570899.103    24570899.062    24570899.940         370.001         276.315         283.520         279.918   129120945.141 7  96421495.030 8  98936826.591 8  97679158.384 8        47.438          48.250          50.938          52.688
E31  28724253.146    28724256.014    28724253.729    28724253.223       -3281.687       -2450.701       -2514.565       -2482.666   150947024.064 5 112720192.525 6 115660741.279 6 114190418.975 7        35.188          41.438          40.250          43.875
E33  27367879.379    27367878.716    27367877.486    27367878.344       -2631.814       -1965.272       -2016.627       -1990.947   143819208.588 7 107397463.153 6 110199145.682 7 108798324.986 7        42.563          40.188          43.375          44.938
E36  28506686.824    28506690.501    28506688.546    28506688.542        2708.717        2022.696        2075.507        2049.102   149803655.297 5 111866378.030 6 114784627.516 6 113325496.361 7        31.438          40.500          41.688          44.125
G07  23936589.494    23936586.882    23936586.437                        -683.783        -532.712        -532.809                   125787634.594 7  98016330.459 5  98016334.435 4                        44.250          35.813          28.375
G08  20994359.337    20994360.730    20994359.941    20994356.078        1792.655        1396.872        1396.878        1338.658   110326122.304 8  85968430.931 7  85968414.921 6  82386393.138 8        48.563          47.875          41.813          50.875
G10  21553883.600    21553883.713    21553883.759    21553879.711        1120.012         872.714         872.741         836.365   113266434.572 8  88259563.258 7  88259565.251 9  84582070.725 8        50.688          47.063          54.375          50.125
G15  24677042.668    24677041.012    24677039.914                        -602.990        -469.733        -469.857                   129678744.332 6 101048375.087 5 101048368.091 5                        37.688          34.500          31.375
G16  21893488.305                    21893485.327                       -2910.356                       -2267.806                   115051069.837 8                  89650188.213 6                        48.375                          38.750
G18  24203144.217    24203143.223    24203142.754    24203146.654       -3422.452       -2666.733       -2666.847       -2555.606   127188412.313 6  99107880.243 6  99107871.232 3  94978370.960 7        41.438          37.000          23.125          44.875
G21  22832470.442                    22832467.914                        2671.036                        2081.324                   119985451.963 7                  93495155.311 5                        45.688                          32.563
G23  21968921.710    21968919.712    21968919.448    21968920.789       -1245.173        -970.267        -970.261        -929.865   115447476.822 7  89959072.323 7  89959075.319 6  86210789.857 7        47.375          45.625          38.000          46.875
G26  24607675.008    24607676.936    24607676.848    24607673.320       -3791.538       -2954.449       -2954.437       -2831.307   129314252.623 6 100764372.819 6 100764371.805 5  96565867.330 6        40.313          37.750          35.375          38.500
G30  24731745.159    24731745.337    24731743.974    24731744.601         679.706         529.691         529.640         507.536   129966207.075 7 101272380.589 6 101272375.583 4  97052690.633 7        42.688          38.063          27.438          44.438
R04  21967111.096    21967111.392    21967114.151    21967114.164       -1062.834       -1062.866        -826.652        -826.592   117632890.713 8 117632888.729 8  91492285.184 7  91492278.182 7        51.375          50.938          45.188          44.688
R05  21660712.650    21660712.911    21660716.722    21660716.472        2645.061        2645.043        2057.278        2057.324   115788937.943 8 115788941.955 8  90058070.367 7  90058079.375 7        50.438          50.688          46.188          46.750
R06  24528031.528    24528032.964                                        4414.899        4415.063                                   130886293.504 6 130886286.485 5                                        36.063          34.625
R10  22570056.658    22570056.171                                       -4310.893       -4310.874                                   120311105.798 8 120311074.800 8                                        49.625          48.688
R12  22249179.328    22249180.045    22249183.227    22249183.457        2913.906        2913.957        2266.411        2266.444   118851140.846 8 118851136.846 8  92439792.356 7  92439800.353 7        49.563          49.438          44.938          44.875
R20  20122793.607    20122793.705    20122799.624    20122799.016       -1939.681       -1939.546       -1508.666       -1508.607   107605647.253 6 107605649.258 6  83693327.334 8  83693314.335 8        40.563          39.563          49.188          50.063
R21  20355271.039    20355271.614    20355274.887    20355274.946        1971.676        1971.685        1533.495        1533.600   108925190.737 8 108925192.736 8  84719606.998 8  84719602.006 8        52.125          52.313          49.188          49.375
R22  23953556.840    23953555.414                                        3512.809        3512.876                                   127865723.356 5 127865727.381 4                                        30.938          29.625
> 2021 12 21 00 00 30.0000000  0 44        .000000000000
C05  40374509.256    40374509.161    40374505.668          13.432          11.021          10.396   210240668.635 6 170837762.119 6 162571402.788 6        38.063          37.750          37.000
C08  41469663.114    41469658.839    41469659.123       -1335.883       -1085.684       -1033.064   215943431.892 5 175471724.079 5 166981142.470 5        35.188          32.625          33.625
C11  21758810.849    21758809.919    21758809.859         267.363         217.304         206.776   113303877.186 7  92068681.002 8  87613762.283 8        47.250          52.500          52.375
C12  23559038.565    23559037.099    23559036.305       -2223.861       -1807.047       -1719.637   122678164.502 7  99686051.474 8  94862536.693 8        47.188          50.250          49.688
C13  40746599.829    40746602.276    40746602.994       -1203.311        -977.843        -930.487   212178252.169 6 172412229.120 6 164069702.280 6        40.500          39.188          39.250
C21  24075231.107    24075227.786                        1697.041        1378.974                   125366057.189 8 101870183.042 8                        49.438          49.313
C22  25108086.342    25108082.154                       -1200.079        -975.182                   130744407.669 8 106240533.334 7                        48.063          47.375
C23  24152001.543    24151995.479                       -1172.589        -952.775                   125765807.183 8 102194991.098 8                        49.188          49.875
C25  25496876.678    25496877.986                       -3155.096       -2563.803                   132768944.035 7 107885646.150 7                        46.438          44.000
C28  26732977.907    26732978.733                        2942.000        2390.677                   139205629.596 5 113115985.567 7                        35.375          42.375
C34  22012098.080    22012100.751                       -1013.792        -823.778                   114622819.794 8  93140463.069 8                        50.875          53.313
C37  25658598.545    25658603.130                        1548.992        1258.803                   133611064.030 7 108569959.074 7                        44.063          43.125
C39  41415740.168    41415742.086                        1836.660        1492.177                   215662634.672 5 175243554.594 6                        35.125          38.625
C42  25970345.572    25970356.751                        3359.537        2729.887                   135234402.945 7 109889076.119 7                        44.500          43.563
C43  22723251.860    22723253.179                        1672.858        1359.347                   118325962.699 8  96149550.358 8                        51.188          51.875
C44  25370143.772    25370145.159                       -2846.115       -2312.678                   132109033.958 7 107349437.846 7                        45.563          44.250
E02  27308599.438    27308598.692    27308597.339    27308597.063        2589.461        1933.698        1984.143        1958.939   143507678.196 7 107164823.780 6 109960416.662 6 108562628.304 7        42.063          37.563          40.938          42.438
E07                  28921760.314    28921756.296    28921757.442                       -1149.359       -1179.570       -1164.401                   113495189.905 5 116455920.335 4 114975565.699 5                        33.500          29.063          34.438
E11  22800855.918    22800852.249    22800851.074    22800852.438        1604.741        1198.360        1229.647        1214.008   119819326.716 7  89475463.165 7  91809613.500 7  90642536.900 8        44.813          46.063          47.313          49.750
E12  22149346.823    22149343.998    22149342.861    22149343.804       -1041.820        -778.024        -798.337        -788.181   116395654.046 7  86918854.193 7  89186284.057 8  88052575.198 8        43.563          47.500          49.375          51.438
E19  27401623.825    27401625.087    27401622.481    27401623.316        2411.117        1800.699        1847.459        1824.079   143996507.735 5 107529865.308 6 110334981.343 6 108932437.397 6        35.563          36.000          36.625          39.250
E24  25446165.304    25446164.147    25446162.916    25446164.208       -2537.189       -1894.683       -1944.120       -1919.400   133720540.187 7  99856294.315 7 102461217.378 8 101158743.415 8        47.438          45.813          49.313          50.688
E25  24568837.078    24568836.565    24568836.526    24568837.446         354.910         265.026         271.952         268.495   129110106.516 7  96413401.252 8  98928521.666 8  97670959.030 8        47.250          48.313          50.875          52.688
E31  28742994.207    28742996.851    28742994.837    28742994.345       -3281.519       -2450.451       -2514.523       -2482.492   151045508.996 6 112793736.451 7 115736203.760 6 114264922.178 7        37.813          42.438          41.438          44.875
E33  27382914.925    27382914.257    27382912.910    27382913.751       -2633.271       -1966.244       -2017.698       -1991.985   143898220.629 7 107456465.646 6 110259687.367 7 108858097.079 7        42.625          39.875          42.875          44.500
E36  28491237.113    28491240.505    28491238.795    28491238.586        2706.376        2020.971        2073.566        2047.265   149722465.682 4 111805749.473 6 114722417.347 6 113264076.998 7        29.938          40.250          41.625          44.000
G07  23940550.831    23940548.275    23940548.141                        -701.630        -546.652        -546.721                   125808452.038 7  98032551.820 5  98032555.822 4                        44.125          35.938          28.375
G08  20984165.879    20984167.015    20984166.236    20984162.445        1780.924        1387.760        1387.732        1329.945   110272554.431 8  85926689.732 7  85926673.722 6  82346391.155 8        48.313          47.750          41.688          51.125
G10  21547551.164    21547551.707    21547551.546    21547547.541        1100.693         857.660         857.683         821.954   113233158.810 8  88233634.105 7  88233636.096 9  84557221.950 8        50.313          47.063          54.313          50.375
G15  24680550.016    24680548.722    24680547.950                        -623.259        -485.474        -485.660                   129697174.969 6 101062736.576 5 101062729.598 5                        36.750          35.000          30.625
G16  21910147.579                    21910145.026                       -2923.699                       -2278.207                   115138616.395 8                  89718406.293 6                        48.500                          38.875
G18  24222697.167    24222696.189    24222695.327    24222699.572       -3425.220       -2669.039       -2669.003       -2557.745   127291162.517 6  99187945.334 6  99187936.339 4  95055099.996 7        41.313          38.063          24.313          45.875
G21  22817254.641                    22817252.067                        2661.882                        2074.192                   119905494.628 7                  93432850.905 5                        45.000                          32.188
G23  21976093.232    21976091.586    21976091.303    21976092.489       -1264.985        -985.683        -985.703        -944.595   115485165.110 7  89988439.817 7  89988442.819 6  86238933.711 7        47.313          45.375          38.063          46.813
G26  24629332.423    24629334.813    24629334.233    24629330.277       -3793.589       -2955.940       -2956.042       -2832.760   129428062.898 6 100853056.127 6 100853055.121 5  96650855.525 6        38.875          36.625          33.938          37.063
G30  24727924.724    24727925.127    24727924.142    24727924.123         660.914         515.074         514.994         493.605   129946132.477 7 101256738.050 6 101256733.039 4  97037699.866 7        42.063          39.125          27.563          44.313
R04  21973148.790    21973149.271    21973151.038    21973151.373       -1090.085       -1090.085        -847.898        -847.909   117665221.016 8 117665219.026 8  91517430.982 7  91517423.997 7        51.438          51.063          44.750          44.625
R05  21645935.061    21645935.548    21645938.884    21645939.194        2623.591        2623.580        2040.532        2040.555   115709944.000 8 115709948.009 8  89996630.645 7  89996639.648 7        50.688          50.750          46.563          46.813
R06  24503213.676    24503213.886                                        4416.753        4416.802                                   130753853.613 5 130753846.633 5                                        35.813          34.125
R10  22594347.864    22594347.852                                       -4319.125       -4319.143                                   120440593.971 8 120440562.981 8                                        48.688          48.188
R12  22232878.747    22232879.562    22232882.418    22232882.276        2893.627        2893.642        2250.614        2250.609   118764063.662 8 118764059.658 8  92372065.659 7  92372073.658 7        50.625          50.313          44.813          44.875
R20  20133714.657    20133715.068    20133720.549    20133720.106       -1951.310       -1951.259       -1517.604       -1517.685   107664047.440 6 107664049.433 6  83738749.667 8  83738736.672 8        40.688          39.938          49.313          49.938
R21  20344258.881    20344259.311    20344262.689    20344262.809        1959.297        1959.303        1523.929        1523.823   108866263.003 8 108866265.006 8  84673774.331 8  84673769.345 8        51.750          52.313          48.938          49.438
R22  23933830.319    23933831.375                                        3508.968        3509.107                                   127760429.569 5 127760433.582 5                                        31.313          30.375
> 2021 12 21 00 01 00.0000000  0 44        .000000000000
C05  40374436.442    40374436.955    40374433.413          11.740           9.512           9.189   210240293.049 6 170837456.941 6 162571112.363 6        38.313          38.250          37.188
C08  41477363.032    41477358.501    41477359.239       -1336.390       -1085.926       -1033.442   215983524.771 5 175504302.838 5 167012144.846 5        32.813          31.250          34.375
C11  21757303.377    21757302.140    21757302.099         256.330         208.281         198.200   113296025.840 7  92062301.154 8  87607691.141 8        47.688          52.688          52.625
C12  23571872.449    23571870.758    23571870.094       -2231.066       -1812.915       -1725.182   122744992.692 7  99740354.852 8  94914212.483 8        47.500          50.250          49.813
C13  40753535.939    40753538.498    40753539.095       -1204.464        -978.597        -931.148   212214371.143 6 172441578.755 6 164097631.769 6        40.063          39.375          39.750
C21  24065501.843    24065498.640                        1680.750        1365.740                   125315394.759 8 101829015.675 8                        49.688          49.625
C22  25115052.451    25115048.104                       -1217.852        -989.648                   130780681.024 8 106270008.402 7                        48.125          47.188
C23  24158807.330    24158801.278                       -1189.817        -966.842                   125801246.925 8 102223788.781 8                        49.188          49.938
C25  25515070.718    25515071.791                       -3160.595       -2568.304                   132863684.094 7 107962630.200 7                        46.125          43.938
C28  26716034.263    26716036.171                        2939.950        2388.977                   139117404.461 5 113044295.496 6                        33.750          41.750
C34  22017970.488    22017973.201                       -1024.593        -832.548                   114653399.276 8  93165311.436 8                        51.125          53.625
C37  25649721.293    25649726.973                        1532.746        1245.448                   133564841.884 7 108532399.794 7                        44.375          43.938
C39  41405175.213    41405176.631                        1831.686        1488.321                   215607617.030 6 175198848.239 6                        36.438          38.375
C42  25951001.324    25951012.391                        3356.111        2727.157                   135133672.160 7 109807224.099 7                        44.000          43.563
C43  22713642.011    22713643.456                        1663.448        1351.645                   118275922.292 8  96108888.444 8                        51.563          52.063
C44  25386551.811    25386553.895                       -2849.906       -2315.750                   132194478.537 7 107418868.532 7                        45.938          44.500
E02  27293842.328    27293841.609    27293840.878    27293840.501        2580.684        1927.237        1977.336        1952.295   143430130.939 7 107106915.087 6 109900997.327 6 108503964.288 7        42.313          36.750          41.750          42.563
E07                  28930585.370    28930582.022    28930582.671                       -1159.126       -1189.621       -1174.406                   113529824.420 5 116491458.315 4 115010651.952 5                        30.000          29.000          32.375
E11  22791721.268    22791717.723    22791716.466    22791717.815        1595.751        1191.601        1222.756        1207.181   119771324.061 7  89439617.029 7  91772832.245 7  90606223.206 8        44.938          45.938          47.313          49.625
E12  22155321.563    22155318.718    22155317.596    22155318.529       -1051.124        -784.836        -805.338        -795.094   116427051.339 7  86942300.192 7  89210341.694 8  88076327.017 8        43.813          47.188          49.375          51.375
E19  27387883.400    27387884.956    27387882.161    27387883.172        2402.669        1794.246        1841.143        1817.696   143924302.584 5 107475945.911 6 110279655.332 6 108877814.688 6        35.938          36.750          37.250          40.063
E24  25460680.532    25460679.480    25460678.169    25460679.536       -2547.783       -1902.554       -1952.194       -1927.367   133796818.764 7  99913255.574 7 102519664.583 8 101216447.647 8        47.375          45.313          49.250          50.438
E25  24566857.435    24566856.967    24566856.794    24566857.822         338.895         253.091         259.672         256.374   129099703.424 7  96405632.698 8  98920550.458 8  97663089.149 8        47.188          48.063          51.000          52.563
E31  28761730.360    28761732.953    28761731.047    28761730.530       -3282.078       -2450.927       -2514.912       -2482.918   151143968.364 6 112867261.303 6 115811646.649 6 114339406.048 7        39.625          41.625          40.750          44.125
E33  27397955.185    27397954.821    27397953.097    27397954.006       -2635.610       -1968.147       -2019.548       -1993.853   143977257.991 7 107515487.059 6 110320248.468 7 108917888.338 7        42.625          40.000          42.500          44.375
E36  28475798.105    28475801.276    28475799.492    28475799.399        2702.861        2018.458        2071.033        2044.737   149641332.627 5 111745163.089 6 114660250.437 6 113202700.350 7        32.750          40.000          41.750          43.875
G07  23944610.184    23944607.609    23944607.300                        -720.218        -561.142        -561.210                   125829783.653 7  98049173.843 6  98049177.836 4                        44.250          36.438          28.375
G08  20974035.993    20974036.978    20974036.212    20974032.561        1768.210        1377.786        1377.826        1320.396   110219321.554 8  85885209.567 7  85885193.555 6  82306639.332 8        48.625          47.813          41.938          51.313
G10  21541326.241    21541326.327    21541326.363    21541322.402        1080.460         841.885         841.911         806.770   113200445.694 8  88208143.369 7  88208145.364 9  84532793.339 8        50.563          47.063          54.438          50.438
G15  24684169.309    24684167.442    24684167.656                        -644.632        -502.237        -502.310                   129716196.110 6 101077558.227 5 101077551.227 5                        37.938          34.688          31.000
G16  21926879.699                    21926877.009                       -2937.817                       -2289.214                   115226543.228 8                  89786920.696 6                        48.563                          38.938
G18  24242262.953    24242261.685    24242261.500    24242265.273       -3428.999       -2671.920       -2671.945       -2560.641   127393980.524 6  99268063.260 6  99268054.263 4  95131879.658 7        40.938          38.750          25.500          46.313
G21  22802088.681                    22802085.305                        2651.753                        2066.296                   119825794.546 7                  93370746.944 5                        45.563                          32.250
G23  21983374.491    21983372.890    21983372.374    21983373.804       -1285.660       -1001.802       -1001.821        -960.115   115523428.605 7  90018255.532 7  90018258.529 6  86267507.104 7        47.563          45.313          37.750          46.938
G26  24650997.917    24650999.808    24650999.497    24650994.689       -3796.435       -2958.244       -2958.264       -2834.798   129541914.136 6 100941771.379 6 100941770.364 5  96735874.322 5        38.188          36.125          32.500          35.438
G30  24724208.092    24724208.976    24724207.790    24724207.259         641.237         499.753         499.661         478.817   129926602.038 7 101241519.524 6 101241514.520 4  97023115.459 7        42.625          39.125          27.563          44.188
R04  21979334.888    21979335.537    21979337.995    21979337.871       -1118.232       -1118.233        -869.804        -869.614   117698350.111 8 117698348.119 8  91543198.069 7  91543191.070 7        50.813          50.438          45.063          44.438
R05  21631274.883    21631275.319    21631279.413    21631279.207        2601.048        2601.045        2023.048        2023.052   115631577.796 8 115631581.807 8  89935679.170 7  89935688.173 7        50.563          50.563          46.750          46.813
R06  24478381.541    24478381.241                                        4417.455        4417.385                                   130621343.438 6 130621336.467 5                                        36.625          35.625
R10  22618682.062    22618681.726                                       -4328.232       -4328.226                                   120570309.199 7 120570278.201 7                                        47.938          47.188
R12  22216688.553    22216689.144    22216692.002    22216691.983        2872.294        2872.288        2234.044        2233.981   118677578.574 8 118677574.575 8  92304799.480 7  92304807.484 7        50.563          50.375          44.750          44.625
R20  20144696.795    20144697.260    20144703.182    20144702.405       -1963.682       -1963.716       -1527.263       -1527.186   107722774.431 6 107722776.436 6  83784426.217 8  83784413.214 8        40.813          39.875          49.563          50.188
R21  20333312.792    20333313.033    20333316.706    20333316.508        1946.007        1945.997        1513.555        1513.628   108807687.704 8 108807689.708 8  84628215.786 8  84628210.791 8        52.000          52.125          48.938          49.438
R22  23914124.282    23914123.027                                        3504.840        3504.854                                   127655221.254 5 127655225.258 5                                        31.938          30.750
> 2021 12 21 00 01 30.0000000  0 44        .000000000000
C05  40374365.833    40374365.415    40374362.106          12.247           9.919           9.538   210239920.955 6 170837154.591 6 162570824.635 6        38.188          38.250          37.000
C08  41485055.186    41485051.973    41485051.911       -1334.855       -1084.664       -1032.273   216023584.721 5 175536854.785 5 167043121.738 5        32.313          31.750          34.000
C11  21755850.223    21755848.937    21755848.804         247.280         200.939         191.213   113288458.642 7  92056152.217 8  87601839.736 8        47.938          52.625          52.500
C12  23584738.353    23584736.804    23584736.158       -2236.187       -1817.080       -1729.190   122811989.489 7  99794795.238 8  94966018.652 8        47.813          50.188          49.688
C13  40760468.948    40760471.526    40760472.484       -1203.338        -977.730        -930.545   212250473.478 6 172470914.875 6 164125548.397 6        39.563          39.563          39.750
C21  24055857.500    24055854.212                        1666.486        1354.111                   125265173.558 8 101788206.846 8                        49.938          49.438
C22  25122111.727    25122107.411                       -1233.603       -1002.404                   130817441.395 7 106299879.218 7                        47.750          46.938
C23  24165703.503    24165697.341                       -1204.970        -979.150                   125837156.131 8 102252967.946 8                        49.500          50.000
C25  25533287.279    25533288.636                       -3164.183       -2571.099                   132958543.484 7 108039711.210 7                        45.563          43.625
C28  26699091.866    26699096.526                        2939.766        2388.876                   139029195.343 5 112972618.453 6                        34.250          40.750
C34  22023896.405    22023898.955                       -1033.370        -839.684                   114684256.195 8  93190385.219 8                        51.250          53.688
C37  25640930.596    25640935.776                        1518.307        1233.766                   133519063.680 7 108495201.246 7                        45.188          44.563
C39  41394628.638    41394629.513                        1828.994        1486.271                   215552696.221 6 175154220.608 6                        38.500          36.438
C42  25931667.784    25931678.870                        3354.659        2725.988                   135032997.649 7 109725417.818 7                        44.000          43.375
C43  22704077.534    22704078.929                        1656.022        1345.675                   118226117.511 8  96068417.985 8                        51.750          52.063
C44  25402973.285    25402975.529                       -2851.639       -2317.206                   132279989.019 7 107488352.777 7                        45.563          44.313
E02  27279126.705    27279126.368    27279125.034    27279125.011        2573.967        1921.997        1972.147        1947.075   143352799.329 6 107049167.461 6 109841743.242 7 108445463.427 7        41.875          37.375          42.125          43.000
E07                  28939478.540    28939474.971    28939476.271                       -1168.246       -1197.964       -1183.031                   113564723.396 4 116527267.710 4 115046006.127 5                        29.313          28.375          31.938
E11  22782629.450    22782625.779    22782624.521    22782625.886        1588.711        1186.338        1217.288        1201.815   119723545.794 7  89403938.458 7  91736222.928 7  90570079.261 8        45.000          45.938          47.313          49.625
E12  22161339.183    22161336.306    22161335.182    22161336.151       -1057.997        -790.105        -810.703        -800.405   116458674.143 7  86965914.642 7  89234572.171 8  88100249.480 8        43.875          47.250          49.375          51.375
E19  27374182.426    27374184.486    27374181.555    27374182.410        2396.327        1789.486        1836.285        1812.884   143852304.522 6 107422181.150 6 110224488.013 6 108823348.645 6        36.000          36.875          37.625          40.313
E24  25475247.232    25475246.097    25475244.860    25475246.166       -2556.243       -1908.914       -1958.703       -1933.812   133873367.102 7  99970418.279 7 102578318.491 8 101274355.957 8        47.063          45.125          49.000          50.250
E25  24564960.770    24564960.225    24564960.032    24564961.022         324.786         242.541         248.866         245.710   129089735.511 7  96398189.124 8  98912912.703 8  97655548.484 8        47.063          48.188          50.938          52.688
E31  28780461.164    28780464.050    28780461.938    28780461.537       -3280.554       -2449.901       -2513.860       -2481.883   151242399.908 6 112940765.370 7 115887068.220 6 114413868.868 7        38.438          42.188          41.188          44.563
E33  27413000.117    27412999.552    27412998.165    27412998.836       -2635.965       -1968.522       -2019.742       -1994.125   144056319.202 7 107574526.259 6 110380827.806 7 108977697.609 7        42.688          39.563          42.125          43.938
E36  28460369.533    28460373.203    28460370.963    28460370.989        2701.387        2017.325        2069.868        2043.584   149560255.403 5 111684618.475 6 114598126.396 6 113141366.023 7        33.063          40.250          40.625          43.438
G07  23948766.903    23948764.091    23948763.775                        -736.855        -574.242        -574.177                   125851627.385 7  98066194.909 6  98066198.901 4                        43.625          36.125          28.313
G08  20963969.837    20963971.024    20963970.016    20963966.421        1757.495        1369.482        1369.475        1312.396   110166423.652 8  85843990.418 7  85843974.406 7  82267137.649 8        48.375          47.813          42.000          51.250
G10  21535208.242    21535208.529    21535208.355    21535204.417        1062.264         827.718         827.733         793.214   113168295.479 8  88183091.266 7  88183093.259 9  84508785.072 8        50.313          47.000          54.438          50.500
G15  24687900.894    24687899.426    24687899.528                        -663.546        -517.131        -517.050                   129735806.519 5 101092839.077 5 101092832.075 4                        35.313          35.125          29.500
G16  21943683.418                    21943680.685                       -2949.918                       -2298.641                   115314847.145 8                  89855728.930 6                        48.250                          38.875
G18  24261840.769    24261839.961    24261839.924    24261843.300       -3430.680       -2673.266       -2673.256       -2561.894   127496863.896 6  99348232.125 6  99348223.120 4  95208708.132 7        41.813          40.063          27.000          46.313
G21  22786970.748                    22786968.102                        2643.576                        2059.923                   119746351.722 7                  93308843.466 5                        45.063                          32.063
G23  21990764.790    21990763.126    21990762.762    21990764.143       -1304.260       -1016.336       -1016.308        -973.980   115562264.978 7  90048517.637 7  90048520.632 6  86296508.286 7        46.938          45.250          37.750          46.813
G26  24672670.049    24672671.575    24672671.830    24672667.476       -3797.031       -2958.569       -2958.728       -2835.551   129655803.278 6 101030516.142 5 101030515.136 5  96820921.401 5        37.813          35.188          31.125          35.875
G30  24720595.398    24720595.585    24720594.740    24720594.770         623.630         485.893         485.944         465.698   129907615.326 7 101226724.693 6 101226719.688 4  97008937.069 7        42.750          39.125          28.125          44.750
R04  21985670.009    21985670.172    21985673.587    21985673.356       -1144.263       -1144.273        -890.019        -889.886   117732275.301 8 117732273.315 8  91569584.336 7  91569577.330 7        50.125          49.750          45.688          45.188
R05  21616732.854    21616733.262    21616737.367    21616737.293        2580.394        2580.379        2006.920        2007.077   115553842.682 8 115553846.692 8  89875218.551 7  89875227.548 7        50.563          50.688          46.688          46.938
R06  24453537.145    24453537.046                                        4420.092        4420.321                                   130488765.897 5 130488758.916 5                                        35.938          35.250
R10  22643058.404    22643057.841                                       -4335.060       -4335.098                                   120700246.916 7 120700215.921 7                                        47.313          46.813
R12  22200609.965    22200610.311    22200613.083    22200613.177        2852.890        2852.914        2218.947        2219.027   118591688.418 8 118591684.418 8  92237996.028 7  92238004.022 7        50.500          50.375          44.563          44.625
R20  20155740.958    20155740.086    20155745.871    20155745.420       -1973.911       -1973.989       -1535.337       -1535.214   107781825.971 6 107781827.972 6  83830355.196 8  83830342.188 8        40.750          39.750          49.375          50.063
R21  20322432.183    20322432.621    20322436.244    20322436.155        1934.689        1934.687        1504.744        1504.894   108749464.359 8 108749466.359 8  84582930.971 8  84582925.969 8        52.188          52.250          48.938          49.625
R22  23894428.882    23894429.489                                        3502.376        3502.296                                   127550098.274 5 127550102.281 5                                        32.938          31.563
> 2021 12 21 00 02 00.0000000  0 44        .000000000000
C05  40374294.619    40374294.559    40374291.200          12.992          10.654          10.222   210239551.599 6 170836854.443 6 162570539.012 6        37.750          38.063          37.063
C08  41492743.492    41492738.619    41492738.728       -1332.619       -1083.155       -1030.870   216063610.657 5 175569379.169 5 167074072.335 5        33.375          33.125          34.688
C11  21754451.136    21754450.149    21754450.037         238.884         194.113         184.762   113281174.786 7  92050233.501 8  87596207.414 8        47.125          52.688          52.563
C12  23597636.635    23597634.863    23597634.354       -2240.703       -1820.774       -1732.702   122879153.431 7  99849371.432 8  95017954.065 8        47.000          50.125          49.875
C13  40767398.046    40767401.320    40767402.376       -1201.652        -976.369        -929.059   212286557.986 6 172500236.480 6 164153451.211 6        37.625          40.063          40.000
