     3.04           OBSERVATION DATA    M                   RINEX VERSION / TYPE
HEADER CHANGED BY EPN CB ON 2020-02-06                      COMMENT
TO BE CONFORM WITH THE INFORMATION IN                       COMMENT
ftp://epncb.oma.be/pub/station/log/dour.log                 COMMENT
                                                            COMMENT
sbf2rin-13.4.3                          20200114 000232 UTC PGM / RUN BY / DATE
ROB GNSS Network Data, https://doi.org/10.24414/FST8-P256   COMMENT
DOUR                                                        MARKER NAME
13113M001                                                   MARKER NUMBER
GEODETIC                                                    MARKER TYPE
ROB                 ROB                                     OBSERVER / AGENCY
3001319             SEPT POLARX4        2.9.6-patch2        REC # / TYPE / VERS
09300021            LEIAR25.R3      NONE                    ANT # / TYPE
  4086778.4060   328451.7490  4869782.4150                  APPROX POSITION XYZ
        0.7619        0.0000        0.0000                  ANTENNA: DELTA H/E/N
G   14 C1C L1C S1C C1W S1W C2W L2W S2W C2L L2L S2L C5Q L5Q  SYS / # / OBS TYPES
       S5Q                                                  SYS / # / OBS TYPES
E   12 C1C L1C S1C C5Q L5Q S5Q C7Q L7Q S7Q C8Q L8Q S8Q      SYS / # / OBS TYPES
R   12 C1C L1C S1C C2P L2P S2P C2C L2C S2C C3Q L3Q S3Q      SYS / # / OBS TYPES
SEPTENTRIO RECEIVERS OUTPUT ALIGNED CARRIER PHASES.         COMMENT
NO FURTHER PHASE SHIFT APPLIED IN THE RINEX ENCODER.        COMMENT
G L1C                                                       SYS / PHASE SHIFT
G L2W                                                       SYS / PHASE SHIFT
G L2L  0.00000                                              SYS / PHASE SHIFT
G L5Q  0.00000                                              SYS / PHASE SHIFT
E L1C  0.00000                                              SYS / PHASE SHIFT
E L5Q  0.00000                                              SYS / PHASE SHIFT
E L7Q  0.00000                                              SYS / PHASE SHIFT
E L8Q  0.00000                                              SYS / PHASE SHIFT
R L1C                                                       SYS / PHASE SHIFT
R L2P  0.00000                                              SYS / PHASE SHIFT
R L2C                                                       SYS / PHASE SHIFT
R L3Q  0.00000                                              SYS / PHASE SHIFT
    30.000                                                  INTERVAL
  2020     1    13     0     0    0.0000000     GPS         TIME OF FIRST OBS
  2020     1    13    23    59   30.0000000     GPS         TIME OF LAST OBS
    80                                                      # OF SATELLITES
 C1C    0.000 C2C    0.000 C2P    0.000                     GLONASS COD/PHS/BIS
DBHZ                                                        SIGNAL STRENGTH UNIT
 23 R01  1 R02 -4 R03  5 R04  6 R05  1 R06 -4 R07  5 R08  6 GLONASS SLOT / FRQ #
    R09 -2 R10 -5 R11  0 R12 -1 R13 -2 R14 -7 R15  0 R16 -1 GLONASS SLOT / FRQ #
    R17  4 R18 -3 R19  3 R20  2 R21  4 R22 -3 R23  3        GLONASS SLOT / FRQ #
                                                            END OF HEADER
> 2020 01 13 00 00  0.0000000  0 32
E02  27477918.930 6 144397441.68406        41.000    27477921.743 6 107829266.42006        41.000    27477918.705 7 110642187.25007        42.250    27477919.689 7 109235733.34307        44.750
E11  24061628.878 7 126444735.38807        45.750    24061628.415 7  94423021.85507        46.250    24061625.131 7  96886217.95507        46.750    24061626.490 8  95654618.41008        49.500
E12  21833998.786 7 114738456.12307        44.500    21833998.778 8  85681323.08308        48.250    21833995.916 8  87916481.92608        49.250    21833996.967 8  86798908.50908        51.750
E14  22753569.113 7 119570822.52707        42.500    22753572.160 7  89289917.93307        44.000    22753568.736 7  91619193.22107        44.250    22753570.060 7  90454559.08307        47.000
E19  26884115.733 6 141276991.11906        39.000    26884118.066 6 105499069.83106        37.500    26884115.029 6 108251203.52306        39.000    26884116.152 6 106875133.68206        41.250
E20  21797629.642 5 114547320.75505        35.500
E24  23592896.751 7 123981509.19707        45.250    23592911.726 7  92583653.06207        45.750    23592908.342 7  94998856.20407        47.000    23592909.265 8  93791248.13608        49.500
E25  24785939.117 7 130250987.75507        47.500    24785942.831 8  97265357.49608        49.000    24785939.530 8  99802700.23008        50.000    24785940.630 8  98534028.36708        52.500
E33  27284794.040 6 143382579.66706        40.750    27284796.672 7 107071424.54007        42.750    27284792.878 7 109864575.98307        42.250    27284794.376 7 108468008.26807        45.500
E36  28350563.345 6 148983212.14306        38.750    28350568.214 6 111253716.63606        36.750    28350564.497 6 114155976.00706        36.000    28350566.231 6 112704848.33006        39.500
G07  24343160.476 7 127924165.34807        44.000    24343160.244 4        27.000    24343158.243 4  99681160.45804        27.000    24343158.259 6  99681158.45606        36.500
G08  22066972.697 8 115962743.22508        49.750    22066972.308 6        40.250    22066973.597 6  90360588.06806        40.250    22066974.558 7  90360577.07907        44.000    22066973.685 8  86595566.42308        50.250
G10  21692702.043 8 113995920.05308        50.000    21692702.008 7        42.000    21692702.921 7  88828001.28507        42.000    21692702.813 7  88827996.28407        46.000    21692702.221 8  85126830.56408        51.250
G11  25609027.121 5 134576337.93105        34.750    25609026.487 2        15.500    25609025.970 2 104864678.61802        15.500
G13  25307299.792 6 132990754.21106        38.000    25307299.403 2        16.250    25307297.313 2 103629146.56202        16.250
G15  24597960.009 7 129263163.87507        42.750    24597960.044 4        25.750    24597958.415 4 100724537.10604        25.750    24597958.129 6 100724532.09706        37.000
G16  21335082.184 7 112116612.54607        47.000    21335081.626 6        38.000    21335080.310 6  87363587.25506        38.000
G18  24515760.814 6 128831194.27706        41.500    24515760.533 3        23.250    24515760.638 3 100387942.93503        23.250
G20  21142922.495 8 111106821.49908        48.250    21142921.632 6        39.250    21142920.337 6  86576736.95206        39.250
G21  23119284.403 7 121492668.03007        46.000    23119283.576 5        34.500    23119282.046 5  94669603.12005        34.500
G26  22972092.352 7 120719160.08207        45.750    22972092.080 5        33.750    22972094.571 5  94066892.36505        33.750    22972094.636 7  94066889.36307        42.000    22972093.934 7  90147425.75707        46.250
G27  20341885.039 8 106897347.45108        50.250    20341884.735 7        45.250    20341885.492 7  83296642.91207        45.250    20341884.994 8  83296645.91708        48.500    20341886.009 8  79825956.95408        53.750
G30  25341016.592 6 133167945.69706        37.500    25341016.119 2        17.750    25341016.828 2 103767229.84602        17.750    25341018.071 5 103767230.84805        33.500    25341017.998 6  99443596.87006        40.500
R06  21552326.442 7 115007369.01807        45.250
R07  21694819.306 8 116134059.73708        49.000    21694820.725 7  90326512.36207        45.000    21694820.392 7  90326516.36307        44.750
R08  24261727.064 6 129920448.41906        38.750    24261727.013 6 101049235.89306        37.250    24261726.271 6 101049234.88706        36.500
R12  22035627.370 8 117710354.27608        50.000    22035630.727 7  91552500.02607        43.500    22035631.125 7  91552502.03007        43.250
R13  20656111.679 6 110302478.94106        39.250    20656113.981 7  85790821.43807        42.750    20656113.154 6  85790823.44106        39.750
R14  22883760.823 7 121983328.51307        46.000    22883764.716 7  94875924.86207        42.500    22883764.242 7  94875873.84607        42.750
R21  23105382.753 7 123641580.84207        47.000    23105384.499 6  96165682.89006        40.750    23105384.112 6  96165683.89006        41.250    23105367.010 6  92641524.36106        41.500
R22  19666265.127 8 104979867.94208        50.000    19666267.572 8  81651036.42508        49.750    19666267.661 8  81651043.42508        49.500
R23  21126673.753 8 113013475.55708        49.750    21126678.220 6  87899392.56106        40.500    21126677.845 6  87899390.57106        40.750
> 2020 01 13 00 00 30.0000000  0 32
E02  27463856.975 6 144323545.21506        40.500    27463859.641 6 107774084.01606        41.500    27463856.239 6 110585565.27506        40.500    27463857.393 7 109179831.15707        44.250
E11  24052963.547 7 126399197.43307        45.750    24052962.903 7  94389016.25107        46.250    24052959.463 7  96851325.25707        46.250    24052960.906 8  95620169.25908        49.250
E12  21839698.754 7 114768410.61007        44.500    21839698.910 8  85703691.69708        48.250    21839696.010 8  87939434.06508        49.000    21839697.132 8  86821568.88408        51.500
E14  22791308.731 7 119769143.73607        42.750    22791311.536 7  89438014.86807        44.000    22791308.037 7  91771153.56707        44.250    22791309.356 7  90604587.72307        47.250
E19  26871663.282 6 141211551.94406        39.250    26871665.470 6 105450202.92806        38.000    26871662.320 6 108201061.81406        39.250    26871663.475 6 106825629.37906        41.750
E20  21796581.726 5 114541817.66605        35.750
E24  23607865.653 7 124060170.58807        45.750    23607880.547 7  92642393.71207        46.000    23607877.074 7  95059129.21707        47.000    23607878.039 8  93850754.96708        49.500
E25  24785708.515 7 130249776.13907        47.750    24785712.322 8  97264452.70808        49.000    24785708.922 8  99801771.84308        49.750    24785710.059 8  98533111.77908        52.500
E33  27299156.467 6 143458053.29506        41.000    27299158.952 7 107127784.69007        42.750    27299155.105 7 109922406.40907        42.000    27299156.606 7 108525103.55707        45.500
E36  28335754.498 6 148905390.76706        39.750    28335759.187 6 111195603.25606        37.000    28335755.530 6 114096346.65006        36.000    28335757.294 6 112645976.96206        39.500
G07  24342918.055 7 127922892.71607        43.500    24342917.819 4        26.750    24342915.872 4  99680168.79104        26.750    24342915.930 6  99680166.80106        36.000
G08  22052379.970 8 115886057.70908        49.000    22052379.590 6        40.250    22052380.734 6  90300833.13306        40.250    22052381.452 7  90300822.14507        44.500    22052380.977 8  86538301.28008        50.250
G10  21681424.490 8 113936655.46508        49.500    21681424.446 7        42.000    21681425.198 7  88781821.10807        42.000    21681424.887 7  88781816.11507        46.250    21681424.543 8  85082574.56908        51.500
G11  25588526.473 5 134468607.35205        33.750    25588525.923 2        13.500    25588525.723 2 104780732.68902        13.500
G13  25308948.996 6 132999419.30406        38.250    25308948.616 2        16.500    25308946.246 2 103635898.57402        16.500
G15  24596909.990 7 129257645.76207        43.500    24596910.025 4        26.250    24596908.326 4 100720237.28604        26.250    24596908.766 6 100720232.28506        36.750
G16  21348848.475 7 112188955.26307        47.000    21348847.930 6        38.000    21348846.638 6  87419958.19206        38.000
G18  24494363.804 6 128718751.42706        41.500    24494363.509 3        23.250    24494363.213 3 100300325.14903        23.250
G20  21144486.662 8 111115041.26708        48.000    21144485.799 6        39.250    21144484.434 6  86583141.97406        39.250
G21  23133901.010 7 121569478.82107        46.250    23133900.183 5        34.500    23133898.443 5  94729455.68605        34.500
G26  22991878.896 7 120823138.55207        45.000    22991878.624 5        33.500    22991881.009 5  94147914.54605        33.500    22991880.485 7  94147911.54607        42.000    22991880.415 7  90225072.00907        46.000
G27  20337828.476 8 106876030.41508        50.250    20337828.172 7        45.250    20337828.992 7  83280032.23207        45.250    20337828.864 8  83280035.23408        49.000    20337829.506 9  79810038.39009        54.000
G30  25332239.335 6 133121817.57606        38.000    25332238.866 3        18.750    25332239.521 3 103731285.86103        18.750    25332240.298 5 103731286.85805        33.000    25332239.601 6  99409150.52906        39.500
R06  21556240.934 7 115028260.56307        44.500
R07  21678083.266 8 116044471.14808        48.500    21678084.649 7  90256832.37207        45.000    21678084.654 7  90256836.36407        44.500
R08  24236885.423 6 129787417.53706        39.750    24236884.449 6 100945767.41206        37.500    24236884.637 6 100945766.41406        37.500
R12  22058197.770 8 117830918.66308        50.000    22058200.651 7  91646272.33407        43.250    22058200.961 7  91646274.31607        42.750
R13  20659455.842 6 110320337.04006        39.250    20659458.129 7  85804711.06607        42.750    20659458.265 6  85804713.07106        39.750
R14  22866199.331 7 121889710.99107        47.250    22866201.614 6  94803111.21806        41.250    22866201.873 6  94803060.19206        41.000
R21  23124141.943 8 123741965.86008        48.000    23124144.011 6  96243760.11106        41.000    23124143.783 6  96243761.08406        40.500    23124126.366 6  92716740.34706        41.000
R22  19672108.744 8 105011061.69008        50.250    19672111.191 8  81675298.22508        49.750    19672111.298 8  81675305.22308        49.500
R23  21112031.848 8 112935147.34608        50.750    21112035.494 6  87838470.64306        40.250    21112034.439 6  87838468.64406        40.750
> 2020 01 13 00 01  0.0000000  0 32
E02  27449843.119 6 144249900.12806        40.750    27449845.140 6 107719089.30906        41.000    27449841.451 6 110529135.91406        40.000    27449842.836 7 109124119.12407        43.500
E11  24044335.279 7 126353855.88307        45.750    24044334.612 7  94355157.31707        46.500    24044331.202 7  96816583.03907        46.250    24044332.673 8  95585868.68308        49.250
E12  21845436.948 7 114798565.14107        44.500    21845437.132 8  85726209.68108        48.250    21845434.289 8  87962539.47408        49.000    21845435.364 8  86844380.58208        51.750
E14  22829077.888 7 119967622.99507        43.000    22829080.774 7  89586229.86107        44.000    22829077.453 7  91923235.04607        44.500    22829078.714 7  90754735.95807        47.250
E19  26859260.736 6 141146376.86806        39.500    26859263.086 6 105401533.23906        38.000    26859259.978 6 108151122.47006        39.750    26859261.031 6 106776324.85906        41.750
E20  21795618.147 5 114536751.34405        35.750
E24  23622883.910 7 124139092.09207        45.750    23622898.813 7  92701328.60507        46.000    23622895.267 7  95119601.54907        47.000    23622896.324 8  93910458.58008        49.500
E25  24785564.255 7 130249017.57907        47.500    24785567.919 8  97263886.23908        49.250    24785564.592 8  99801190.59508        49.750    24785565.711 8  98532537.92108        52.500
E33  27313523.463 6 143533552.94906        40.750    27313526.106 7 107184164.27407        43.000    27313522.116 7 109980256.76307        42.000    27313523.791 7 108582218.52207        45.500
E36  28320953.362 6 148827611.00306        40.750    28320957.671 6 111137520.95506        37.000    28320955.223 6 114036749.15406        37.000    28320956.353 6 112587137.07106        40.000
G07  24342779.587 7 127922163.62407        44.500    24342779.342 4        27.000    24342777.216 4  99679600.67604        27.000    24342777.508 5  99679598.65705        35.750
G08  22037828.899 8 115809591.82008        49.250    22037828.524 6        40.250    22037829.850 6  90241249.33206        40.250    22037830.564 7  90241238.33607        45.000    22037829.956 8  86481200.14808        50.500
G10  21670240.545 8 113877883.83408        50.000    21670240.496 7        42.250    21670241.370 7  88736025.05307        42.250    21670240.947 7  88736020.05607        46.500    21670240.656 8  85038686.69108        51.500
G11  25568027.414 5 134360879.51205        34.750    25568026.923 2        15.500    25568025.909 2 104696788.88102        15.500
G13  25310705.155 6 133008648.80506        37.750    25310704.784 2        15.250    25310702.758 2 103643090.39502        15.250
G15  24595969.309 7 129252702.38607        44.000    24595969.335 4        26.250    24595967.613 4 100716385.30204        26.250    24595967.895 6 100716380.30506        36.250
G16  21362701.758 7 112261754.75707        47.250    21362701.213 6        38.000    21362699.819 6  87476685.06806        38.000
G18  24472984.338 6 128606402.69306        41.500    24472984.043 3        23.500    24472983.921 3 100212780.69503        23.500
G20  21146164.039 8 111123855.21108        48.250    21146163.172 6        39.250    21146161.691 6  86590009.98906        39.250
G21  23148538.998 7 121646401.62007        46.500    23148538.171 5        34.750    23148536.456 5  94789395.52605        34.750
G26  23011706.773 7 120927337.09407        45.250    23011706.487 5        33.250    23011709.341 5  94229108.19505        33.250    23011709.412 6  94229105.20306        41.750    23011708.684 7  90302882.60707        45.750
G27  20333848.833 8 106855117.54108        50.250    20333848.529 7        45.250    20333849.315 7  83263736.48407        45.250    20333849.226 8  83263739.49308        49.000    20333849.908 9  79794421.63009        54.000
G30  25323553.298 6 133076173.60906        39.250    25323552.878 3        19.250    25323553.340 3 103695719.11203        19.250    25323553.391 5 103695720.10905        33.500    25323554.371 6  99375065.74606        40.500
R06  21560308.526 7 115049964.95207        44.000
R07  21661451.928 8 115955440.39808        48.750    21661453.084 7  90187586.25207        45.000    21661452.776 7  90187590.23807        44.750
R08  24212034.534 6 129654348.45506        38.000    24212034.618 6 100842269.26606        37.250    24212034.801 6 100842268.23806        37.750
R12  22080830.048 8 117951817.03008        49.000    22080833.380 7  91740304.40507        44.000    22080833.606 7  91740306.38707        43.500    22080918.048 6  88533969.05616        37.250
R13  20662957.363 6 110339033.92706        39.500    20662959.512 7  85819253.06507        42.500    20662960.196 6  85819255.03706        39.250
R14  22848737.965 7 121796635.38807        46.000    22848741.336 6  94730719.05306        41.750    22848741.209 7  94730668.04607        42.000
R21  23142915.471 7 123842423.27407        47.250    23142916.723 6  96321893.61906        40.750    23142916.425 6  96321894.62206        40.750    23142899.194 6  92792010.57106        40.750
R22  19678022.031 8 105042626.59408        50.250    19678024.312 8  81699848.69908        49.750    19678024.573 8  81699855.69108        49.250
R23  21097436.414 8 112857069.35708        50.750    21097439.706 6  87777743.33706        40.500    21097439.418 6  87777741.32206        40.750
> 2020 01 13 00 01 30.0000000  0 32
E02  27435877.582 7 144176510.25407        42.500    27435879.013 6 107664285.16906        39.500    27435876.248 6 110472902.06706        40.750    27435876.912 7 109068600.12507        43.250
E11  24035744.678 7 126308712.84707        46.250    24035744.196 7  94321446.63707        46.750    24035740.780 7  96781992.93907        46.250    24035742.212 8  95551718.29308        49.500
E12  21851213.572 7 114828921.12607        44.750    21851213.711 8  85748878.10608        48.500    21851210.842 8  87985799.25608        49.000    21851211.936 8  86867344.68608        51.750
E14  22866876.876 7 120166257.70707        43.250    22866879.761 7  89734560.94907        44.000    22866876.356 7  92075435.63907        44.000    22866877.698 7  90905001.79807        47.000
E19  26846909.313 6 141081469.77006        40.000    26846911.633 6 105353063.66606        38.000    26846908.496 6 108101388.48406        39.250    26846909.587 6 106727223.07806        41.750
E20  21794737.721 6 114532123.89406        36.250
E24  23637951.556 7 124218274.09307        45.750    23637966.660 7  92760458.02307        46.000    23637963.093 7  95180273.47207        46.500    23637964.221 8  93970359.25008        49.250
E25  24785506.576 8 130248714.31808        48.000    24785510.238 8  97263659.77108        49.500    24785506.826 8  99800958.22608        49.750    24785507.991 8  98532308.50208        52.500
E33  27327895.704 6 143609080.16806        40.500    27327898.247 7 107240564.44707        42.500    27327894.608 7 110038128.25507        42.000    27327896.194 7 108639354.35807        45.250
E36  28306160.630 6 148749875.08306        41.250    28306165.434 6 111079471.40006        37.250    28306162.039 6 113977185.25306        36.750    28306163.663 6 112528330.33806        40.000
G07  24342744.281 7 127921979.64507        44.500    24342744.031 4        27.250    24342742.105 4  99679457.30704        27.250    24342742.756 6  99679455.31006        36.250
G08  22023320.374 8 115733348.97008        49.000    22023319.994 6        40.250    22023321.653 6  90181839.33406        40.250    22023321.975 7  90181828.34107        45.000    22023321.381 8  86424265.56108        50.000
G10  21659151.108 8 113819609.08308        49.750    21659151.068 7        42.500    21659152.109 7  88690616.18507        42.500    21659151.825 7  88690611.18007        46.500    21659151.249 8  84995169.86608        51.250
G11  25547528.085 5 134253157.69705        35.500    25547527.647 2        15.500    25547527.106 2 104612849.75402        15.500
G13  25312569.242 6 133018444.52006        36.750    25312568.813 2        14.500    25312566.431 2 103650723.43402        14.500
G15  24595138.704 7 129248336.44007        43.750    24595138.753 4        25.500    24595136.463 4 100712983.28004        25.500    24595136.393 5 100712978.28205        35.250
G16  21376641.817 7 112335011.46807        47.250    21376641.267 6        38.250    21376640.031 6  87533768.21906        38.250
G18  24451624.121 6 128494151.42306        41.500    24451623.840 4        24.000    24451623.557 4 100125312.19004        24.000
G20  21147954.567 8 111133265.08608        48.250    21147953.696 6        39.000    21147952.383 6  86597342.37106        39.000
G21  23163198.390 7 121723437.16107        46.000    23163197.577 5        34.500    23163195.978 5  94849423.21905        34.500
G26  23031577.345 7 121031755.32007        43.500    23031577.046 5        32.750    23031579.483 5  94310473.03905        32.750    23031579.229 6  94310470.04306        41.750    23031578.884 7  90380857.24107        45.500
G27  20329946.569 8 106834611.69808        50.500    20329946.265 7        45.250    20329947.056 7  83247757.90107        45.250    20329947.091 8  83247760.90508        48.750    20329947.741 8  79779108.82008        53.750
G30  25314960.830 6 133031017.29006        38.500    25314960.374 3        20.250    25314960.469 3 103660532.37603        20.250    25314961.934 5 103660533.40905        34.250    25314961.570 6  99341345.13506        40.500
R06  21564528.652 7 115072482.98407        44.750
R07  21644925.308 8 115866973.95508        48.750    21644926.888 7  90118779.03407        45.250    21644926.692 7  90118783.04107        44.750
R08  24187179.504 6 129521247.29106        38.750    24187179.462 6 100738746.10306        37.750    24187179.352 6 100738745.09206        38.250
R12  22103523.908 8 118073047.09008        48.250    22103527.826 7  91834594.43007        43.750    22103528.258 7  91834596.43707        43.500    22103589.698 5  88624870.87215        35.750
R13  20666615.947 6 110358570.53006        39.000    20666618.104 7  85834448.18107        42.500    20666618.163 6  85834450.16906        39.500
R14  22831380.161 7 121704107.27607        46.500    22831383.942 7  94658752.74807        43.000    22831383.644 7  94658701.74807        43.000
R21  23161701.412 7 123942954.57507        46.750    23161703.610 6  96400084.58406        41.000    23161703.154 6  96400085.58006        40.500    23161686.439 6  92867336.15306        41.000
R22  19684005.414 8 105074563.91508        51.000    19684007.133 8  81724688.82008        49.500    19684007.235 8  81724695.82608        49.000
R23  21082887.554 8 112779244.44608        50.750    21082891.041 6  87717212.85806        40.250    21082890.263 6  87717210.84006        41.000
> 2020 01 13 00 02  0.0000000  0 32
E02  27421960.327 6 144103374.74706        41.250    27421961.422 6 107609670.97506        38.500    27421959.828 7 110416863.20207        43.000    27421960.145 7 109013273.59207        44.000
E11  24027191.692 7 126263765.91907        46.000    24027191.092 7  94287882.39007        46.750    24027187.681 7  96747553.10307        46.500    24027189.080 8  95517716.25108        49.750
E12  21857027.844 7 114859475.49307        44.500    21857027.957 8  85771694.67908        48.500    21857025.177 8  88009211.03908        49.500    21857026.239 8  86890458.86408        52.000
E14  22904704.360 7 120365040.86107        43.250    22904706.966 7  89883002.86907        43.750    22904703.574 7  92227749.96007        44.000    22904704.874 7  91055379.91907        46.750
E19  26834608.773 6 141016830.00306        40.000    26834611.006 6 105304793.72506        37.750    26834608.023 6 108051859.33506        39.250    26834609.025 6 106678323.53106        41.750
E20  21793940.018 6 114527933.27006        36.000
E24  23653068.007 7 124297712.42107        45.250    23653083.184 7  92819778.85007        46.000    23653079.818 7  95241141.80307        46.750    23653080.845 8  94030453.82908        49.500
E25  24785534.926 7 130248864.03807        47.750    24785538.702 8  97263771.57108        49.500    24785535.390 8  99801072.94008        50.250    24785536.507 8  98532421.75908        52.750
E33  27342272.832 6 143684632.05906        40.500    27342275.154 7 107296983.05507        42.500    27342271.953 7 110096018.65707        42.750    27342273.176 7 108696508.86007        45.750
E36  28291375.720 6 148672180.69506        40.250    28291380.764 6 111021452.86406        37.000    28291377.370 6 113917653.16206        37.000    28291378.802 6 112469555.01906        40.000
G07  24342812.635 7 127922337.99407        44.750    24342812.416 4        26.750    24342810.646 4  99679736.52304        26.750    24342810.273 6  99679734.51806        36.250
G08  22008854.100 8 115657327.93408        49.250    22008853.716 6        40.000    22008855.167 6  90122602.16606        40.000    22008855.520 7  90122591.17307        44.750    22008854.971 8  86367496.61008        50.250
G10  21648156.232 8 113761830.57708        50.250    21648156.192 7        42.500    21648157.243 7  88645593.99607        42.500    21648157.113 7  88645589.00407        46.750    21648156.247 8  84952023.60508        51.250
G11  25527029.740 6 134145440.12106        36.500    25527029.226 2        15.750    25527029.175 2 104528913.93002        15.750
G13  25314540.832 6 133028803.83106        37.250    25314540.367 2        15.250    25314537.715 2 103658795.62302        15.250
G15  24594417.346 7 129244545.78707        43.750    24594417.390 4        26.250    24594415.133 4 100710029.54004        26.250    24594415.367 6 100710024.55806        36.000
G16  21390668.415 7 112408720.71507        47.250    21390667.865 6        38.250    21390666.513 6  87591203.99706        38.250
G18  24430281.443 6 128381996.26406        41.750    24430281.171 4        24.000    24430281.334 4 100037918.57304        24.000
G20  21149857.862 8 111143267.63008        48.750    21149856.999 6        39.000    21149855.752 6  86605136.56606        39.000
G21  23177878.496 7 121800582.03307        46.250    23177877.687 5        34.250    23177875.863 5  94909536.10605        34.250
G26  23051488.076 7 121136388.25307        44.250    23051487.817 5        32.750    23051490.536 5  94392005.17605        32.750    23051490.501 6  94392002.18606        41.750    23051489.776 7  90458992.22407        45.250
G27  20326121.807 8 106814511.15008        50.750    20326121.503 7        45.250    20326121.936 7  83232095.13307        45.250    20326122.134 8  83232098.14308        48.750    20326122.713 8  79764098.67008        53.750
G30  25306460.634 6 132986347.67406        39.250    25306460.152 3        19.500    25306460.153 3 103625724.87203        19.500    25306460.505 5 103625725.89205        34.000    25306460.749 6  99307987.92906        39.500
R06  21568900.592 7 115095811.03007        44.750
R07  21628504.832 8 115779072.88708        49.500    21628506.258 7  90050411.55607        45.250    21628505.757 7  90050415.54407        44.750
R08  24162317.204 6 129388115.28906        39.000    24162318.300 6 100635198.95606        38.500    24162318.067 6 100635197.94506        38.750
R12  22126279.415 8 118194601.99708        48.000    22126283.291 7  91929137.12407        43.500    22126283.277 7  91929139.12207        44.000    22126367.798 6  88716201.14316        36.750
R13  20670430.604 6 110378942.05806        39.000    20670433.226 7  85850292.69107        43.000    20670433.369 6  85850294.68906        39.750
R14  22814125.545 8 121612127.92308        48.000    22814128.518 7  94587213.25607        42.500    22814128.461 7  94587162.25107        42.750
R21  23180501.762 7 124043556.18807        47.250    23180503.532 6  96478330.24206        40.750    23180503.120 6  96478331.25106        40.750    23180485.941 6  92942714.41306        40.500
R22  19690057.384 8 105106870.27708        51.000    19690059.126 8  81749815.99008        49.250    19690059.371 8  81749822.99508        49.000
R23  21068385.599 8 112701670.75408        50.000    21068389.010 6  87656877.78006        40.250    21068388.533 6  87656875.77506        40.500
> 2020 01 13 00 02 30.0000000  0 32
E02  27408091.492 6 144030495.41706        40.250    27408093.759 6 107555248.07206        40.000    27408091.299 7 110361020.60407        42.750    27408092.190 7 108958140.84207        44.500
E11  24018675.781 7 126219015.07007        46.000    24018675.334 7  94254464.55407        46.750    24018671.859 7  96713263.50507        46.750    24018673.282 8  95483862.53408        49.750
E12  21862879.840 7 114890227.62707        44.500    21862879.956 8  85794658.93208        48.250    21862877.234 8  88032774.36008        49.500    21862878.162 8  86913722.65108        52.000
E14  22942558.914 7 120563967.82507        42.250    22942561.551 7  90031552.19807        43.250    22942558.135 7  92380174.48607        44.000    22942559.444 7  91205866.84507        46.500
E19  26822359.345 6 140952459.45206        40.250    26822361.672 6 105256724.80306        37.750    26822358.623 6 108002536.43506        39.500    26822359.744 6 106629627.62506        41.500
E20  21793225.585 5 114524179.59905        35.250
E24  23668233.232 7 124377405.34707        44.500    23668248.278 7  92879289.80807        45.500    23668244.928 7  95302205.22307        47.000    23668245.905 8  94090741.01908        49.250
E25  24785649.729 7 130249466.93607        47.750    24785653.436 8  97264221.77208        49.250    24785650.123 8  99801534.88908        50.000    24785651.240 8  98532877.83408        52.750
E33  27356654.631 6 143760208.12806        40.750    27356656.916 7 107353419.70807        42.500    27356653.460 7 110153927.56407        42.500    27356654.791 7 108753681.64107        45.500
E36  28276599.082 6 148594528.10706        39.750    28276604.087 6 110963465.50106        36.750    28276600.687 6 113858153.10606        37.500    28276601.976 6 112410811.31106        40.000
G07  24342984.149 7 127923238.13807        45.000    24342983.939 4        26.750    24342981.802 4  99680437.91604        26.750    24342981.862 6  99680435.91106        36.000
G08  21994430.366 8 115581530.13308        49.000    21994429.986 6        40.000    21994431.188 6  90063538.94906        40.000    21994431.860 7  90063527.95907        44.250    21994431.076 8  86310894.36408        50.250
G10  21637256.157 8 113704550.19208        49.500    21637256.117 7        42.250    21637257.117 7  88600959.95207        42.250    21637256.673 7  88600954.95807        46.250    21637256.179 8  84909249.31708        51.250
G11  25506532.453 5 134037727.53905        34.500    25506531.957 2        14.250    25506532.330 2 104444982.02002        14.250
G13  25316618.762 6 133039726.51106        37.500    25316618.360 2        14.000    25316616.295 2 103667306.78602        14.000
G15  24593805.296 7 129241331.11207        43.000    24593805.322 4        24.500    24593803.522 4 100707524.61004        24.500    24593803.889 5 100707519.60605        35.250
G16  21404780.428 7 112482880.48007        47.000    21404779.878 6        38.000    21404778.731 6  87648990.81706        38.000
G18  24408957.046 6 128269938.64806        41.500    24408956.747 4        24.250    24408957.007 4  99950600.94004        24.250
G20  21151874.205 8 111153862.74208        48.250    21151873.334 6        39.000    21151871.863 6  86613392.50706        39.000
G21  23192579.247 7 121877834.85707        46.250    23192578.438 5        34.500    23192576.729 5  94969733.11305        34.500
G26  23071439.737 7 121241233.53907        45.000    23071439.487 5        32.750    23071442.022 5  94473702.78805        32.750    23071441.503 7  94473699.78007        42.500    23071441.286 7  90537285.75707        45.000
G27  20322373.969 8 106794816.70708        50.250    20322373.670 7        45.000    20322374.090 7  83216748.81307        45.000    20322374.570 8  83216751.81708        48.250    20322374.940 8  79749391.77908        53.750
G30  25298052.643 6 132942166.07706        39.250    25298052.196 3        21.500    25298052.866 3 103591297.65403        21.500    25298053.719 6 103591298.64906        36.000    25298053.754 6  99274995.16306        40.500
R06  21573423.524 7 115119948.34907        45.500
R07  21612190.898 8 115691741.52908        49.500    21612191.874 7  89982487.17807        45.250    21612191.830 7  89982491.17607        45.000
R08  24137450.428 6 129254956.12906        38.500    24137451.415 6 100531630.69806        38.250    24137451.915 6 100531629.67406        38.750
R12  22149094.926 8 118316477.44808        48.250    22149098.520 7  92023929.13307        43.500    22149098.334 7  92023931.12707        43.500
R13  20674402.578 6 110400148.45006        39.250    20674404.599 7  85866786.50507        43.250    20674404.374 6  85866788.51206        39.750
R14  22796973.033 7 121520701.31607        45.250    22796976.362 6  94516103.65406        41.250    22796976.383 6  94516052.65406        41.500
R21  23199314.425 7 124144227.47307        46.750    23199316.136 6  96556630.11006        40.750    23199315.904 6  96556631.09506        40.000    23199298.710 6  93018144.90006        40.250
R22  19696178.297 8 105139544.83608        51.000    19696180.053 8  81775229.53308        49.250    19696180.510 8  81775236.53708        48.750
R23  21053931.355 8 112624348.99708        50.500    21053934.982 6  87596738.64306        40.500    21053934.699 6  87596736.64606        41.000
> 2020 01 13 00 03  0.0000000  0 33
E02  27394272.289 6 143957873.91406        41.250    27394274.822 6 107501017.75106        41.500    27394271.995 6 110305375.58006        41.750    27394272.940 7 108903203.17607        44.500
E04  28938119.602 6 152070843.47616        36.750    28938122.276 5 113559407.57815        35.000    28938118.995 6 116521814.34216        36.250    28938120.147 6 115040616.46816        38.750
E11  24010197.312 7 126174460.40007        46.000    24010196.921 7  94221193.22107        46.750    24010193.378 7  96679124.21507        46.750    24010194.795 8  95450157.22108        49.750
E12  21868769.276 7 114921176.86907        44.750    21868769.332 8  85817770.38208        48.250    21868766.618 8  88056488.72008        49.500    21868767.598 8  86937135.55408        51.750
E14  22980440.219 7 120763034.13307        42.250    22980442.671 7  90180205.55907        43.250    22980439.271 7  92532705.76407        44.000    22980440.500 7  91356459.16707        46.500
E19  26810161.900 6 140888359.84906        40.250    26810163.892 6 105208858.23206        37.750    26810161.051 6 107953421.15606        39.750    26810161.963 6 106581136.69706        41.750
E20  21792594.367 5 114520863.02505        35.500
E24  23683446.459 7 124457351.22107        45.000    23683461.480 7  92938989.64607        45.750    23683458.088 7  95363462.44507        46.750    23683459.090 8  94151219.54808        49.250
E25  24785850.648 8 130250523.11408        48.000    24785854.493 8  97265010.46608        49.000    24785851.095 8  99802344.15708        50.000    24785852.239 8  98533676.81508        52.500
E33  27371040.888 6 143835807.92006        41.000    27371043.124 7 107409874.06907        42.500    27371039.474 7 110211854.64407        42.500    27371040.962 7 108810872.36307        45.500
E36  28261830.082 6 148516917.48806        40.000    28261835.390 6 110905509.49206        37.250    28261831.553 6 113798685.20106        37.250    28261833.351 6 112352099.35306        40.250
G07  24343258.516 7 127924679.83307        45.250    24343258.306 4        26.250    24343255.809 4  99681561.30404        26.250    24343256.340 5  99681559.31305        35.500
G08  21980049.231 8 115505956.92108        49.000    21980048.842 6        40.250    21980050.191 6  90004650.73406        40.250    21980050.338 7  90004639.74707        45.000    21980049.980 8  86254459.83008        50.250
G10  21626451.153 8 113647769.73608        49.750    21626451.118 7        42.500    21626452.067 7  88556715.45907        42.500    21626452.004 7  88556710.45907        46.750    21626451.195 8  84866848.34908        51.250
G11  25486036.749 5 133930020.94905        34.500    25486036.244 2        13.750    25486036.022 2 104361054.76402        13.750
G13  25318804.595 6 133051212.21206        36.500    25318804.242 2        13.750    25318802.199 2 103676256.67302        13.750
G15  24593303.325 7 129238692.86307        43.750    24593303.342 4        24.750    24593301.399 4 100705468.85304        24.750    24593302.067 5 100705463.83605        35.250
G16  21418977.957 7 112557488.76407        47.500    21418977.416 6        38.000    21418976.248 6  87707127.14706        38.000
G18  24387652.788 6 128157979.71206        40.750    24387652.507 4        25.000    24387651.907 4  99863360.23704        25.000
G20  21154002.829 8 111165049.73308        48.500    21154001.958 6        39.250    21154000.727 6  86622109.64806        39.250
G21  23207300.379 7 121955194.91007        45.750    23207299.575 5        34.000    23207297.869 5  95030013.67005        34.000
G26  23091430.774 7 121346288.60407        45.250    23091430.453 5        33.000    23091433.372 5  94555563.86805        33.000    23091432.992 6  94555560.86606        41.250    23091432.548 7  90615735.97007        45.000
G27  20318703.665 8 106775529.13608        50.500    20318703.370 7        45.250    20318703.688 7  83201719.53707        45.250    20318704.117 8  83201722.53808        48.250    20318704.588 8  79734988.72408        53.750
G30  25289738.188 6 132898473.89206        39.500    25289737.728 3        21.250    25289738.881 3 103557251.78703        21.250    25289739.472 5 103557252.80505        34.750    25289739.184 6  99242367.88006        41.250
R06  21578098.311 7 115144893.66807        45.250
R07  21595983.554 8 115604983.91608        49.750    21595984.957 7  89915009.04807        45.250    21595984.632 7  89915013.03807        45.000
R08  24112579.934 6 129121773.61706        38.000    24112580.555 6 100428044.30206        38.250    24112579.949 6 100428043.29306        38.500
R12  22171969.718 8 118438668.85408        48.750    22171972.851 7  92118966.86707        43.250    22171972.733 7  92118968.87207        43.500
R13  20678530.173 6 110422188.33106        39.250    20678532.018 7  85883928.62407        43.000    20678531.386 6  85883930.63206        39.750
R14  22779926.767 7 121429830.84807        47.250    22779929.343 6  94445426.61006        41.750    22779929.386 6  94445375.60906        41.750
R21  23218139.835 7 124244967.50907        46.500    23218141.595 6  96634983.43006        40.000    23218141.943 6  96634984.45106        40.000    23218124.232 6  93093626.89506        40.000
R22  19702368.230 8 105172586.75208        50.750    19702369.923 8  81800928.80508        49.250    19702370.136 8  81800935.80508        48.750
R23  21039524.102 8 112547279.97508        50.500    21039527.378 6  87536796.08906        40.250    21039527.026 6  87536794.07006        40.500
> 2020 01 13 00 03 30.0000000  0 33
E02  27380503.837 6 143885518.28506        41.750    27380505.988 7 107446985.94507        42.000    27380501.843 6 110249934.20406        39.500    27380503.598 7 108848466.58907        43.750
E04  28921374.672 6 151982847.77806        36.750    28921377.248 6 113493696.53006        37.250    28921373.950 6 116454389.09706        38.250    28921375.102 6 114974048.31606        40.750
E11  24001757.307 7 126130108.06107        45.500    24001756.872 7  94188072.98807        46.750    24001753.439 7  96645139.97707        47.000    24001754.822 8  95416604.98808        50.000
E12  21874697.401 7 114952328.82707        44.250    21874697.367 8  85841033.20208        48.250    21874694.698 8  88080358.39408        49.500    21874695.619 8  86960701.80308        52.000
E14  23018347.952 7 120962241.38607        42.250    23018350.430 7  90328964.18107        43.250    23018347.139 7  92685345.06007        43.500    23018348.407 7  91507158.12807        46.250
E19  26798016.816 6 140824539.26006        40.250    26798019.371 6 105161200.01406        37.500    26798016.280 6 107904519.67906        39.500    26798017.295 6 106532856.84706        41.500
E20  21792047.703 5 114517990.04505        35.000
E24  23698708.759 7 124537554.43707        45.250    23698723.671 7  92998881.65907        45.750    23698720.211 7  95424916.86107        46.500    23698721.234 8  94211892.76508        49.000
E25  24786138.999 7 130252038.88807        47.500    24786142.907 8  97266142.37108        49.250    24786139.576 8  99803505.59008        50.000    24786140.677 8  98534823.48408        52.500
E33  27385432.416 6 143911437.11706        40.750    27385435.077 7 107466350.38407        42.750    27385431.192 7 110269804.26707        42.250    27385432.754 7 108868085.32907        45.500
E36  28247070.527 6 148439355.28606        40.250    28247075.530 6 110847589.63206        37.250    28247072.243 6 113739254.39906        38.250    28247073.652 6 112293424.02206        40.750
G07  24343636.863 7 127926668.97407        44.500    24343636.640 4        27.000    24343634.341 4  99683111.27604        27.000    24343634.224 5  99683109.27105        35.000
G08  21965712.192 8 115430615.74108        49.500    21965711.803 6        40.000    21965713.373 6  89945943.32806        40.000    21965713.562 7  89945932.33907        44.750    21965712.971 8  86198198.56708        50.000
G10  21615742.778 8 113591497.22108        49.750    21615742.747 7        42.500    21615743.788 7  88512866.76607        42.500    21615743.628 7  88512861.77107        46.750    21615742.874 8  84824826.69408        51.250
G11  25465543.124 5 133822327.05505        34.750    25465542.700 2        14.250    25465542.298 2 104277137.40302        14.250
G13  25321098.188 6 133063266.63906        38.000    25321097.880 2        14.250    25321096.119 2 103685649.73802        14.250
G15  24592912.276 7 129236637.58707        43.500    24592912.316 4        25.250    24592910.463 4 100703867.33704        25.250    24592910.181 5 100703862.33705        35.750
G16  21433261.515 7 112632549.61107        47.500    21433260.961 6        38.000    21433259.769 6  87765616.13106        38.000
G18  24366368.001 6 128046127.04806        40.250    24366367.747 4        24.250    24366367.212 4  99776202.31204        24.250
G20  21156245.679 8 111176834.33808        48.500    21156244.808 6        39.000    21156243.232 6  86631292.46706        39.000
G21  23222042.507 7 122032666.98207        45.250    23222041.707 5        33.750    23222040.170 5  95090381.51505        33.750
G26  23111462.874 7 121451557.28107        44.750    23111462.539 5        33.000    23111465.316 5  94637591.39405        33.000    23111465.000 7  94637588.39807        42.000    23111464.478 7  90694345.68807        45.000
G27  20315112.145 8 106756655.40008        50.750    20315111.846 7        45.000    20315112.072 7  83187012.72707        45.000    20315112.572 8  83187015.73108        48.250    20315113.028 8  79720894.70008        53.750
G30  25281518.891 6 132855278.78306        39.750    25281518.418 3        21.750    25281519.234 3 103523593.26503        21.750    25281519.344 6 103523594.27706        36.000    25281519.819 7  99210111.77607        42.250
R06  21582926.087 7 115170652.38207        45.000
R07  21579885.539 8 115518810.32508        50.000    21579886.887 7  89847985.15807        45.250    21579886.813 7  89847989.16207        44.750
R08  24087706.383 6 128988578.23206        37.750    24087707.284 6 100324447.84406        38.500    24087707.667 6 100324446.84606        38.750
R12  22194903.429 8 118561178.02208        49.000    22194906.841 7  92214251.78207        43.250    22194906.714 7  92214253.77807        43.000
R13  20682813.522 6 110445066.45106        39.250    20682816.249 7  85901722.70007        43.000    20682815.959 6  85901724.70506        39.750
R14  22762986.288 7 121339526.53307        46.250    22762989.294 7  94375189.91707        43.500    22762988.636 7  94375138.91407        43.000
R21  23236979.693 7 124345781.55307        46.000    23236980.908 6  96713394.31306        39.750    23236980.652 6  96713395.30806        39.250    23236963.911 6  93169164.34506        39.750
R22  19708627.950 8 105206001.37908        51.000    19708629.649 8  81826917.95708        49.250    19708629.906 8  81826924.95708        48.750
R23  21025165.000 8 112470470.71708        50.500    21025169.271 6  87477055.55806        40.750    21025168.428 6  87477053.56206        41.250
> 2020 01 13 00 04  0.0000000  0 33
E02  27366783.936 6 143813419.90506        41.000    27366785.333 6 107393146.26706        40.000    27366781.819 6 110194689.97606        40.250    27366782.992 7 108793924.62807        43.000
E04  28904609.530 5 151894751.44105        31.250    28904612.970 6 113427910.33206        36.250    28904609.686 6 116386886.73606        36.250    28904610.989 6 114907404.03906        39.250
E11  23993353.975 7 126085947.98907        46.000    23993353.462 7  94155096.32207        46.500    23993350.066 7  96611303.04307        47.000    23993351.409 8  95383198.18908        49.750
E12  21880661.848 7 114983672.65907        44.750    21880661.896 8  85864439.31208        48.000    21880659.131 8  88104375.09608        49.250    21880660.146 8  86984413.20908        51.500
E14  23056279.923 7 121161574.97007        42.500    23056282.476 7  90477817.14707        43.250    23056278.991 7  92838081.13807        43.250    23056280.323 7  91657952.64807        46.250
E19  26785923.933 6 140760989.29306        40.250    26785925.886 6 105113743.88006        37.750    26785922.997 6 107855825.55706        39.500    26785924.145 6 106484781.72206        41.750
E20  21791583.416 5 114515550.52205        35.500
E24  23714017.543 7 124618003.15607        45.000    23714032.570 7  93058957.00607        46.000    23714029.014 7  95486559.37907        46.500    23714030.133 8  94272751.69608        49.250
E25  24786512.995 7 130254004.22007        47.500    24786516.922 8  97267609.97708        48.750    24786513.505 8  99805011.48308        50.000    24786514.688 8  98536310.23308        52.250
E33  27399827.756 6 143987085.09106        40.750    27399830.438 7 107522840.73807        42.500    27399826.550 7 110327768.28407        42.250    27399828.221 7 108925312.51407        45.250
E36  28232318.366 6 148361831.49706        39.750    28232323.136 6 110789698.46106        37.500    28232320.160 6 113679853.05306        38.000    28232321.537 6 112234777.76306        40.750
G07  24344117.573 7 127929194.46907        44.250    24344117.341 4        26.750    24344114.965 4  99685079.17504        26.750    24344116.036 5  99685077.17405        35.250
G08  21951417.663 8 115355497.74108        49.750    21951417.274 6        40.250    21951418.915 6  89887409.82406        40.250    21951418.967 7  89887398.83907        45.250    21951418.581 8  86142103.95908        50.000
G10  21605129.515 8 113535724.26508        50.000    21605129.480 7        42.500    21605130.602 7  88469407.34207        42.500    21605130.057 7  88469402.34307        46.750    21605129.567 8  84783178.08708        51.250
G11  25445051.373 6 133714636.79106        36.000    25445051.002 2        14.000    25445049.331 2 104193222.84302        14.000
G13  25323498.963 6 133075879.43706        37.750    25323498.650 2        14.750    25323496.213 2 103695477.89702        14.750
G15  24592630.031 7 129235156.05107        43.750    24592630.066 4        24.500    24592628.362 4 100702712.91004        24.500    24592628.492 5 100702707.91105        34.500
G16  21447629.193 7 112708051.35507        47.750    21447628.635 6        38.000    21447627.231 6  87824448.68606        38.000
G18  24345101.684 6 127934371.87506        40.000    24345101.470 4        24.250    24345100.913 4  99689120.37704        24.250
G20  21158599.642 8 111189205.51508        48.750    21158598.771 6        39.000    21158597.331 6  86640932.34906        39.000
G21  23236803.606 7 122110239.10907        45.250    23236802.802 5        33.500    23236801.671 5  95150827.32805        33.500
G26  23131533.054 7 121557026.82607        45.250    23131532.701 5        33.000    23131535.523 5  94719775.44205        33.000    23131535.152 6  94719772.45106        41.000    23131534.651 7  90773105.40807        44.750
G27  20311597.693 8 106738186.07308        50.500    20311597.389 7        44.750    20311597.489 7  83172621.04107        44.750    20311598.189 8  83172624.04508        48.250    20311598.438 8  79707102.66308        53.500
G30  25273392.109 6 132812571.89606        38.750    25273391.653 3        21.750    25273392.516 3 103490315.19903        21.750    25273391.849 5 103490316.17805        35.500    25273392.726 6  99178220.28406        41.750
R06  21587902.849 7 115197213.08707        44.500
R07  21563895.439 8 115433213.99808        49.750    21563896.553 7  89781410.25207        45.250    21563896.519 7  89781414.25607        44.750
R08  24062829.338 6 128855363.08106        37.750    24062830.789 6 100220836.05906        39.250    24062830.493 6 100220835.06006        39.750
R12  22217894.297 8 118683990.30508        49.000    22217897.546 7  92309772.41807        42.750    22217897.305 7  92309774.42307        43.000
R13  20687253.430 6 110468771.81406        39.000    20687255.465 7  85920160.19007        43.000    20687255.136 6  85920162.19906        39.750
R14  22746150.085 7 121249781.99607        45.750    22746152.929 7  94305388.61707        42.250    22746153.499 7  94305337.61507        42.250
R21  23255830.646 7 124446658.68407        45.500    23255832.276 6  96791854.24806        40.000    23255832.732 6  96791855.26006        39.500    23255815.668 6  93244749.04106        40.500
R22  19714955.103 8 105239777.69508        51.000    19714957.156 8  81853188.41308        49.250    19714957.399 8  81853195.42508        48.750
R23  21010853.548 8 112393911.43508        50.500    21010857.754 6  87417509.46906        41.500    21010856.838 6  87417507.44806        41.500
> 2020 01 13 00 04 30.0000000  0 33
E02  27353114.861 6 143741591.42806        38.750    27353115.993 6 107339508.11606        37.750    27353114.469 7 110139652.58007        42.250    27353114.834 7 108739586.85007        43.250
E04  28887829.121 5 151806567.20805        35.000    28887832.034 5 113362058.42305        34.750    28887828.773 5 116319316.95305        35.250    28887830.049 6 114840693.19406        38.000
E11  23984989.105 7 126041990.97607        46.000    23984988.712 7  94122271.29007        46.500    23984985.478 7  96577621.71607        47.000    23984986.703 8  95349945.00908        49.750
E12  21886664.773 7 115015218.64107        44.500    21886664.871 7  85887996.37307        47.750    21886662.237 8  88128546.69208        49.250    21886663.139 8  87008277.53708        51.500
E14  23094237.089 7 121361041.30107        43.000    23094239.685 7  90626769.22307        43.250    23094236.326 7  92990918.93307        43.500    23094237.548 7  91808847.58307        46.500
E19  26773884.665 6 140697722.56806        41.000    26773886.844 6 105066499.26306        38.000    26773883.904 6 107807348.47406        39.750    26773884.861 7 106436920.87307        42.000
E20  21791203.928 6 114513555.56706        36.000
E24  23729374.751 7 124698706.49507        45.250    23729389.976 7  93119222.47007        46.250    23729386.313 7  95548397.00507        46.500    23729387.532 8  94333803.24208        49.250
E25  24786974.719 7 130256430.06307        46.750    24786978.488 8  97269421.46508        48.750    24786975.156 8  99806870.22908        50.000    24786976.324 8  98538145.35208        52.250
E33  27414228.779 6 144062762.25206        40.750    27414231.217 7 107579352.88307        42.250    27414227.663 7 110385754.66007        42.250    27414229.216 7 108982561.77607        45.250
E36  28217575.371 6 148284357.20406        38.750    28217580.454 6 110731844.25106        38.250    28217577.500 6 113620489.60706        38.000    28217578.807 6 112176168.93606        41.000
G07  24344702.407 7 127932266.76307        44.000    24344702.171 4        27.000    24344699.933 4  99687473.15504        27.000    24344700.008 6  99687471.16306        36.250
G08  21937168.167 8 115280615.57308        49.250    21937167.770 6        40.250    21937169.338 6  89829060.08706        40.250    21937169.545 7  89829049.09807        44.750    21937168.917 8  86086185.46508        50.250
G10  21594613.751 8 113480463.49908        49.750    21594613.720 7        42.750    21594614.839 7  88426347.02007        42.750    21594614.495 7  88426342.02707        46.750    21594613.770 8  84741911.94708        51.000
G11  25424560.654 6 133606962.03006        36.500    25424560.131 2        14.750    25424559.274 2 104109320.39702        14.750
G13  25326006.744 6 133089061.02606        37.750    25326006.472 2        15.250    25326004.485 2 103705749.24402        15.250
G15  24592459.997 7 129234259.53907        43.500    24592460.037 4        25.000    24592457.720 4 100702014.33704        25.000    24592457.901 5 100702009.34105        35.000
G16  21462082.133 7 112784002.37807        47.750    21462081.557 6        38.250    21462080.275 6  87883631.31406        38.250
G18  24323855.831 6 127822726.20706        39.750    24323855.572 4        24.500    24323855.554 4  99602123.74904        24.500
G20  21161067.495 8 111202173.75008        48.500    21161066.624 6        39.250    21161065.162 6  86651037.47006        39.250
G21  23251586.715 7 122187921.83307        44.500    23251585.906 5        33.250    23251584.278 5  95211359.32005        33.250
G26  23151643.335 7 121662705.73107        45.250    23151643.005 5        33.000    23151645.380 5  94802122.63305        33.000    23151644.812 6  94802119.63406        41.250    23151644.671 7  90852021.45707        44.500
G27  20308162.069 8 106720132.76808        50.250    20308161.770 7        44.750    20308162.125 7  83158553.52407        44.750    20308162.803 8  83158556.52608        48.250    20308162.985 8  79693621.29008        53.500
G30  25265360.415 6 132770365.40706        39.000    25265359.950 3        21.500    25265360.552 3 103457426.99003        21.500    25265360.383 5 103457427.99605        35.250    25265361.188 6  99146702.43906        41.250
R06  21593032.330 7 115224585.37607        44.000
R07  21548015.924 8 115348210.34808        50.250    21548017.320 7  89715296.31807        45.250    21548017.142 7  89715300.32107        45.000
R08  24037952.443 6 128722143.53406        38.000    24037952.899 6 100117220.81506        39.250    24037952.426 6 100117219.79606        38.750
R12  22240942.682 8 118807112.32608        48.250    22240946.122 7  92405533.98507        43.000    22240946.670 7  92405535.98807        43.000
R13  20691848.566 6 110493313.65706        38.500    20691851.314 7  85939248.25307        43.000    20691850.898 6  85939250.25806        40.000
R14  22729422.181 7 121160611.68207        46.750    22729424.155 6  94236033.91106        41.250    22729424.401 6  94235982.90206        41.500
R21  23274696.304 7 124547608.99907        45.500    23274696.983 6  96870371.13706        39.750    23274696.801 6  96870372.13206        39.750    23274680.795 6  93320388.55306        40.000
R22  19721352.413 8 105273925.64808        51.000    19721354.264 8  81879747.94008        49.250    19721354.560 8  81879754.94008        49.000
R23  20996590.339 8 112317614.44908        50.750    20996594.557 6  87358167.37506        41.000    20996593.805 6  87358165.37506        41.250
> 2020 01 13 00 05  0.0000000  0 33
E02  27339496.866 6 143670026.12606        40.500    27339498.688 6 107286066.45006        39.500    27339496.177 7 110084816.85407        42.750    27339497.125 7 108685448.15507        44.250
E04  28871030.218 6 151718287.95306        36.000    28871033.007 5 113296135.59905        35.000    28871030.117 6 116251674.41806        36.000    28871031.075 6 114773910.51706        38.500
E11  23976661.487 7 125998228.71007        45.750    23976661.052 7  94089591.68207        46.750    23976657.778 7  96544089.59607        47.250    23976659.030 8  95316839.14408        50.000
E12  21892704.571 7 115046957.70807        44.500    21892704.661 8  85911697.62008        48.250    21892701.926 8  88152866.23708        49.250    21892702.870 8  87032287.93308        51.750
E14  23132217.072 7 121560627.56607        43.250    23132219.674 7  90775810.89007        43.000    23132216.339 7  93143848.63407        43.250    23132217.596 7  91959833.26907        46.000
E19  26761898.193 6 140634732.53306        40.750    26761899.978 6 105019461.25706        37.500    26761897.303 6 107759083.38606        39.750    26761898.278 6 106389269.32606        41.750
E20  21790907.682 5 114511996.76205        35.000
E24  23744778.838 7 124779654.25607        44.750    23744793.812 7  93179670.47707        45.750    23744790.239 7  95610421.91707        46.250    23744791.444 8  94395039.70108        49.000
E25  24787522.534 7 130259308.05707        47.000    24787526.185 8  97271570.59408        49.250    24787522.866 8  99809075.42408        50.000    24787524.013 8  98540322.51608        52.500
E33  27428633.668 6 144138459.71606        40.750    27428635.903 7 107635880.17107        42.500    27428632.620 7 110443756.59907        42.750    27428633.931 7 109039826.38907        45.750
E36  28202840.917 6 148206924.18806        39.000    28202845.806 6 110674020.84606        38.000    28202842.035 6 113561157.78506        37.750    28202843.765 6 112117591.32206        41.000
