     2.11           OBSERVATION DATA    M (MIXED)           RINEX VERSION / TYPE
teqc  2019Feb25                         20210102 00:16:09UTCPGM / RUN BY / DATE
Linux 2.4.21-27.ELsmp|Opteron|gcc|Linux 64|=+               COMMENT
teqc  2019Feb25                         20210101 01:06:28UTCCOMMENT
GN-RINEX 1.3        Geo++ GmbH          31-DEC-20 23:59     COMMENT
gfzrnx-1.13-7761    FILE MERGE          20210101 010328 UTC COMMENT
------------------------------------------------------------COMMENT
AGRS.NL - Active GPS Reference System for the Netherlands   COMMENT
E-mail: rd@kadaster.nl, H.vanderMarel@tudelft.nl            COMMENT
------------------------------------------------------------COMMENT
EIJSDEN                                                     MARKER NAME
13533M001                                                   MARKER NUMBER
H. VAN DER MAREL    AGRS.NL (KAD,MD,TUD)                    OBSERVER / AGENCY
3047859             SEPT POLARX5E       5.3.2               REC # / TYPE / VERS
726690              LEIAR25.R4      LEIT                    ANT # / TYPE
  4023086.5325   400394.8618  4916655.3315                  APPROX POSITION XYZ
        0.0000        0.0000        0.0000                  ANTENNA: DELTA H/E/N
     1     1                                                WAVELENGTH FACT L1/2
     9    C1    D1    D2    L1    L2    P1    P2    S1    S2# / TYPES OF OBSERV
    30.0000                                                 INTERVAL
Forced Modulo Decimation to 30 seconds                      COMMENT
teqc windowed: start @ 2021 Jan  1 00:00:00.000             COMMENT
teqc windowed: delta = 86400.000 sec                        COMMENT
  2021     1     1     0     0    0.0000000     GPS         TIME OF FIRST OBS
    18                                                      LEAP SECONDS
                                                            END OF HEADER
 21  1  1  0  0  0.0000000  0 24G07G08G10G11G13G15G16G18G20G21G23G26
                                G27G30R01R02R03R09R15R16R17R18R19R24
  24301128.370        -590.950        -460.475   127703288.996 7  99509039.267 5
  24301127.928    24301125.554          42.000          27.250
  21953766.534        2549.687        1986.769   115367835.070 8  89897024.843 8
  21953765.841    21953767.060          47.000          49.250
  21369759.786        1542.156        1201.680   112298849.748 8  87505608.360 9
  21369759.152    21369760.520          50.250          54.250
  24190903.190        3507.531        2733.140   127124068.362 7  99057709.627 4
  24190902.412    24190901.598          40.250          22.250
  25244342.961        -800.687        -623.917   132659901.750 7 103371361.401 4
  25244342.514    25244339.564          41.500          20.500
  24289322.778         -41.172         -32.080   127641270.370 7  99460733.410 6
  24289322.492    24289320.935          41.750          37.000
  21655032.717       -2687.404       -2094.082   113797955.103 8  88673721.767 7
  21655031.770    21655030.933          47.750          38.500
  23219247.944       -3190.302       -2485.950   122018006.458 7  95078957.498 5
  23219247.654    23219246.528          44.250          30.750
  21327735.020       -1027.786        -800.874   112078021.782 8  87333530.594 6
  21327733.818    21327732.953          47.000          37.500
  23739426.810        2821.396        2198.496   124751530.579 7  97208978.343 4
  23739425.702    23739424.131          43.000          26.000
  21397340.482        -700.773        -546.062   112443796.977 8  87618536.489 7
  21397340.232    21397339.692          46.500          38.750
  23810732.963       -3683.702       -2870.418   125126246.706 7  97500978.241 7
  23810732.369    23810735.214          41.750          40.000
  20179866.240         380.780         296.711   106045938.454 8  82633209.530 9
  20179865.525    20179866.394          49.750          55.750
  25055137.332         867.748         676.177   131665636.234 7 102596598.403 4
  25055136.613    25055137.412          40.750          26.000
  22058276.239       -1846.279       -1435.786   117914151.662 8  91711039.058 7
  22058276.267    22058282.154          46.250          39.500
  21361581.176        2849.789        2216.666   113989504.572 9  88658512.212 8
  21361581.759    21361585.879          52.000          46.500
  24193176.194        4464.155        3472.254   129507967.644 8 100728437.134 6
  24193176.991    24193180.774          44.750          32.750
  22786194.924        2931.609        2280.340   121677006.288 8  94637681.778 7
  22786194.842    22786198.111          48.000          44.000
  22247439.784       -4109.644       -3196.167   118883560.366 9  92464996.205 7
  22247440.394    22247445.171          50.500          44.000
  20828534.873        -777.009        -604.196   111262285.055 8  86537356.764 7
  20828535.082    20828537.908          46.750          42.500
  19639338.593       -1294.237       -1006.472   105094092.773 9  81739872.356 8
  19639338.937    19639343.075          52.000          49.000
  20225323.695        1886.574        1467.481   107964178.704 9  83972153.966 8
  20225323.496    20225327.188          52.000          48.500
  23828564.774        3436.485        2673.247   127466766.295 6  99140843.591 6
  23828565.146    23828569.161          35.250          36.750
  23195902.578       -3405.064       -2648.106   124038910.068 8  96474739.908 7
  23195902.704    23195907.939          49.000          41.500
 21  1  1  0  0 30.0000000  0 24G07G08G10G11G13G15G16G18G20G21G23G26
                                G27G30R01R02R03R09R15R16R17R18R19R24
  24304546.863        -607.235        -473.166   127721256.168 7  99523039.656 5
  24304546.434    24304544.765          42.500          27.500
  21939230.861        2542.438        1981.122   115291449.716 8  89837503.787 8
  21939230.182    21939231.715          46.250          49.000
  21361003.037        1525.158        1188.435   112252835.382 8  87469753.019 9
  21361002.416    21361004.398          49.750          54.250
  24170884.024        3506.015        2731.958   127018862.190 7  98975730.846 4
  24170883.260    24170881.554          40.000          22.750
  25248964.031        -818.452        -637.729   132684185.429 7 103390283.734 4
  25248963.607    25248961.624          41.500          20.500
  24289611.728         -60.276         -46.970   127642788.806 7  99461916.628 6
  24289611.433    24289609.957          42.250          37.750
  21670411.927       -2700.704       -2104.444   113878773.351 8  88736697.026 6
  21670410.984    21670409.910          47.000          38.000
  23237470.268       -3193.783       -2488.661   122113763.634 7  95153573.461 5
  23237469.951    23237469.123          43.750          31.000
  21333652.475       -1045.507        -814.681   112109117.293 8  87357760.867 6
  21333651.268    21333650.164          46.500          37.250
  23723333.806        2816.025        2194.306   124666964.741 7  97143082.907 4
  23723332.675    23723331.704          42.250          25.500
  21401396.072        -720.078        -561.100   112465107.104 8  87635141.790 7
  21401395.831    21401394.727          46.500          38.500
  23831771.823       -3687.108       -2873.068   125236804.430 7  97587127.108 7
  23831771.197    23831773.173          41.750          39.500
  20177731.267         367.000         285.973   106034719.337 8  82624467.350 9
  20177730.565    20177731.452          49.500          55.750
  25050229.770         850.871         663.018   131639850.416 7 102576505.543 4
  25050229.033    25050230.748          39.500          25.750
  22068704.530       -1870.009       -1454.181   117969892.147 8  91754392.771 7
  22068704.035    22068710.248          46.250          39.250
  21345612.154        2830.961        2201.895   113904290.335 9  88592234.485 8
  21345612.623    21345616.564          52.250          46.250
  24168152.834        4465.972        3473.510   129374009.697 8 100624247.468 6
  24168152.723    24168157.744          48.000          38.000
  22769775.500        2913.334        2266.137   121589327.777 8  94569487.334 7
  22769775.794    22769777.604          48.000          42.500
  22270536.200       -4118.714       -3203.523   119006981.984 8  92560990.795 7
  22270536.310    22270541.172          50.000          43.250
  20832971.640        -803.365        -624.920   111285988.028 8  86555792.397 7
  20832972.239    20832975.579          46.500          42.500
  19646625.898       -1305.788       -1015.590   105133090.160 9  81770203.653 8
  19646626.210    19646630.491          51.750          48.750
  20214749.232        1876.162        1459.280   107907733.989 9  83928252.523 8
  20214749.181    20214753.508          51.000          48.750
  23809296.590        3435.116        2671.573   127363690.155 6  99060673.392 7
  23809296.303    23809300.903          36.000          38.750
  23215008.112       -3406.557       -2649.494   124141079.236 8  96554204.778 7
  23215008.825    23215013.917          48.000          41.000
 21  1  1  0  1  0.0000000  0 24G07G08G10G11G13G15G16G18G20G21G23G26
                                G27G30R01R02R03R09R15R16R17R18R19R24
  24308064.008        -625.180        -487.149   127739737.316 7  99537440.530 5
  24308063.597    24308061.470          41.000          26.750
  21924741.073        2533.482        1974.143   115215305.969 8  89778171.006 8
  21924740.389    21924742.296          46.250          49.000
  21352348.806        1506.552        1173.940   112207354.227 8  87434313.170 9
  21352348.216    21352349.426          49.500          54.000
  24150877.030        3502.836        2729.489   126913723.690 7  98893804.785 4
  24150876.333    24150874.493          41.250          24.000
  25253690.526        -837.918        -652.938   132709025.608 7 103409639.731 3
  25253690.102    25253688.541          41.000          16.500
  24290014.063         -81.058         -63.156   127644902.849 7  99463563.957 6
  24290013.764    24290012.234          41.750          36.750
  21685871.107       -2715.558       -2116.017   113960012.409 8  88800000.181 6
  21685870.146    21685869.134          47.500          38.000
  23255716.445       -3198.782       -2492.558   122209647.821 7  95228288.395 5
  23255716.119    23255715.402          44.000          30.750
  21339675.857       -1064.993        -829.865   112140770.190 8  87382425.461 6
  21339674.646    21339673.651          46.500          37.250
  23707277.175        2808.906        2188.768   124582584.662 7  97077332.224 4
  23707276.022    23707275.125          42.000          25.000
  21405565.930        -741.095        -577.480   112487019.948 8  87652216.743 7
  21405565.689    21405564.731          46.750          38.500
  23852833.260       -3692.014       -2876.893   125347483.573 7  97673370.576 7
  23852832.626    23852834.930          42.500          40.000
  20175679.452         351.545         273.927   106023936.682 8  82616065.276 9
  20175678.759    20175679.448          49.500          55.500
  25045423.369         832.563         648.739   131614593.829 6 102556825.087 4
  25045422.632    25045424.435          36.750          23.250
  22079268.393       -1895.306       -1474.033   118026366.645 8  91798317.405 7
  22079268.114    22079274.672          45.750          39.500
  21329753.462        2810.120        2185.778   113819668.016 9  88526417.137 8
  21329753.817    21329758.488          51.500          46.500
  24143119.637        4465.979        3473.713   129240023.503 7 100520036.124 7
  24143121.995    24143128.228          39.250          42.000
  22753463.793        2893.197        2250.395   121502224.989 8  94501740.716 7
  22753464.532    22753467.014          48.500          43.500
  22293688.792       -4129.384       -3211.571   119130698.093 8  92657214.409 7
  22293688.089    22293692.888          50.250          43.250
  20837561.603        -831.334        -646.407   111310505.246 8  86574861.329 7
  20837561.712    20837565.034          46.500          42.000
  19653983.112       -1319.017       -1025.806   105172456.810 9  81800822.146 8
  19653982.782    19653987.148          51.500          48.750
  20204237.878        1864.188        1450.013   107851622.178 9  83884609.993 8
  20204238.093    20204241.570          51.500          48.750
  23790039.783        3431.730        2669.200   127260683.606 6  98980557.311 6
  23790039.571    23790044.632          36.000          38.000
  23234127.885       -3409.620       -2651.961   124243317.421 8  96633723.326 7
  23234127.518    23234132.851          46.750          40.250
 21  1  1  0  1 30.0000000  0 24G07G08G10G11G13G15G16G18G20G21G23G26
                                G27G30R01R02R03R09R15R16R17R18R19R24
  24311678.994        -642.154        -500.392   127758734.531 7  99552243.533 5
  24311678.605    24311676.498          41.000          26.500
  21910298.592        2525.548        1967.960   115139409.000 8  89719030.512 8
  21910297.913    21910299.456          46.000          48.750
  21343796.152        1488.867        1160.155   112162411.288 8  87399292.712 9
  21343795.558    21343797.210          50.000          54.000
  24130883.402        3500.707        2727.820   126808657.205 7  98811934.850 4
  24130882.763    24130881.489          42.500          24.750
  25258524.233        -856.238        -667.189   132734424.743 7 103429431.238 3
  25258523.804    25258521.564          39.750          15.750
  24290530.440        -100.803         -78.549   127647616.183 7  99465678.251 6
  24290530.159    24290528.048          41.500          36.750
  21701410.881       -2729.324       -2126.751   114041672.817 8  88863631.662 6
  21701409.938    21701408.567          47.750          37.750
  23273987.239       -3202.869       -2495.743   122305660.685 7  95303103.607 5
  23273986.926    23273985.585          43.250          30.000
  21345805.660       -1083.313        -844.140   112172981.883 8  87407525.485 6
  21345804.476    21345803.270          46.750          37.250
  23691256.525        2802.844        2184.028   124498394.336 7  97011729.385 4
  23691255.354    23691254.195          42.500          25.250
  21409850.972        -760.913        -592.917   112509537.768 8  87669763.107 6
  21409850.731    21409849.461          46.750          38.250
  23873917.780       -3695.604       -2879.689   125458284.921 7  97759709.273 7
  23873917.137    23873919.703          42.750          40.000
  20173711.443         337.100         262.678   106013594.407 8  82608006.358 9
  20173710.755    20173711.325          49.500          55.750
  25040717.944         814.961         635.042   131589870.389 6 102537560.095 4
  25040717.211    25040720.090          35.250          21.250
  22089971.118       -1919.509       -1493.148   118083576.181 8  91842813.722 7
  22089970.995    22089976.958          46.500          39.250
  21314008.388        2790.425        2170.252   113735644.844 9  88461065.795 8
  21314008.062    21314012.450          51.750          46.500
  24118088.594        4466.927        3474.303   129106016.213 8 100415808.272 7
  24118089.468    24118094.261          48.000          40.500
  22737262.186        2873.986        2235.263   121415704.886 8  94434447.293 7
  22737262.304    22737263.735          48.500          43.250
  22316894.933       -4138.797       -3219.050   119254707.460 8  92753666.120 7
  22316895.058    22316899.357          50.000          43.000
  20842303.994        -858.239        -667.658   111335838.296 8  86594564.816 7
  20842304.027    20842307.586          46.250          42.250
  19661409.022       -1331.107       -1035.333   105212195.055 9  81831729.668 8
  19661409.216    19661413.349          52.000          48.750
  20193789.044        1853.259        1441.321   107795847.383 9  83841229.616 8
  20193789.896    20193793.396          51.500          48.750
  23770798.137        3429.713        2667.354   127157750.455 6  98900498.267 6
  23770797.209    23770801.184          35.250          36.750
  23253260.384       -3411.861       -2653.795   124345627.481 8  96713297.793 7
  23253260.751    23253265.346          48.000          40.250
 21  1  1  0  2  0.0000000  0 24G07G08G10G11G13G15G16G18G20G21G23G26
                                G27G30R01R02R03R09R15R16R17R18R19R24
  24315390.685        -658.514        -513.132   127778241.407 7  99567443.683 5
  24315390.346    24315388.562          42.250          26.750
  21895902.119        2517.932        1962.025   115063754.457 8  89660078.921 8
  21895901.440    21895902.889          46.500          49.000
  21335345.371        1471.593        1146.695   112118002.276 8  87364688.302 9
  21335344.790    21335346.380          50.000          54.000
  24110902.299        3499.022        2726.507   126703658.359 7  98730117.612 4
  24110901.642    24110900.246          42.500          24.250
  25263462.103        -874.113        -681.107   132760376.497 6 103449653.409 2
  25263461.737    25263459.800          38.250          12.750
  24291159.344        -120.050         -93.543   127650923.717 7  99468255.581 6
  24291159.085    24291157.523          41.500          36.250
  21717029.017       -2742.542       -2137.046   114123747.128 8  88927585.666 6
  21717028.070    21717027.011          47.500          37.750
  23292281.066       -3206.428       -2498.514   122401795.133 7  95378013.552 5
  23292280.753    23292279.356          43.500          30.000
  21352040.246       -1101.166        -858.054   112205745.697 8  87433055.734 6
  21352039.057    21352037.781          47.000          37.250
  23675271.007        2797.346        2179.744   124414388.999 7  96946270.712 5
  23675269.845    23675269.291          42.500          27.500
  21414249.815        -780.349        -608.066   112532654.079 8  87687775.831 6
  21414249.583    21414248.294          46.750          38.250
  23895024.862       -3698.953       -2882.301   125569200.560 7  97846137.038 7
  23895024.214    23895026.461          42.000          39.500
  20171826.135         323.039         251.715   106003687.622 8  82600286.776 9
  20171825.451    20171826.206          50.250          55.750
  25036114.128         798.049         621.860   131565675.303 6 102518706.795 4
  25036113.328    25036115.942          36.250          21.000
  22100809.217       -1943.082       -1511.184   118141512.036 8  91887874.947 7
  22100808.714    22100815.191          45.750          39.250
  21298374.421        2771.028        2155.328   113652219.261 9  88396179.236 8
  21298374.326    21298378.965          52.000          46.750
  24093050.766        4468.101                   128971985.858 8
  24093051.822                          47.000
  22721167.111        2855.057        2220.733   121329765.574 8  94367605.588 7
  22721166.976    22721170.401          46.250          43.250
  22340154.162       -4147.592       -3225.838   119379000.205 8  92850338.249 7
  22340153.837    22340159.383          49.500          42.750
  20847197.703        -884.686        -688.085   111361980.322 8  86614897.474 7
  20847197.600    20847201.312          45.750          42.250
  19668903.120       -1342.678       -1044.264   105252298.513 9  81862921.246 8
  19668902.869    19668907.575          51.500          48.750
  20183402.508        1842.688        1433.254   107740404.880 9  83798107.658 8
  20183402.868    20183407.083          51.250          48.750
  23751567.975        3427.977        2665.942   127054886.016 6  98820492.706 6
  23751568.147    23751572.448          36.000          38.000
  23272404.745       -3413.428       -2654.810   124448002.616 8  96792922.851 7
  23272404.971    23272410.425          48.250          40.750
 21  1  1  0  2 30.0000000  0 24G07G08G10G11G13G15G16G18G20G21G23G26
                                G27G30R01R02R03R09R15R16R17R18R19R24
  24319200.484        -675.520        -526.379   127798262.846 7  99583044.789 5
  24319200.127    24319198.400          41.500          26.500
  21881553.124        2509.764        1955.661   114988350.334 8  89601322.466 8
  21881552.485    21881553.933          46.250          49.250
  21326997.530        1453.645        1132.712   112074134.798 8  87330505.867 9
  21326996.954    21326998.399          49.500          54.000
  24090935.452        3496.701        2724.704   126598734.435 7  98648358.750 4
  24090934.724    24090933.014          42.250          23.000
  25268507.182        -892.405        -695.359   132786885.883 7 103470310.082 2
  25268506.807    25268504.101          40.000          11.250
  24291902.764        -139.709        -108.864   127654831.747 7  99471300.834 6
  24291902.478    24291901.249          42.000          37.000
  21732726.632       -2756.132       -2147.631   114206238.982 8  88991865.027 6
  21732725.689    21732724.652          47.000          37.500
  23310598.931       -3210.286       -2501.521   122498055.815 7  95453021.854 5
  23310598.618    23310597.307          43.500          30.500
  21358380.798       -1119.440        -872.292   112239066.500 8  87459019.997 6
  21358379.618    21358378.467          47.250          37.250
  23659321.170        2790.988        2174.797   124330575.956 7  96880961.884 5
  23659319.994    23659320.232          43.250          27.000
  21418763.659        -800.198        -623.532   112556374.114 8  87706258.983 6
  21418763.414    21418761.916          46.750          38.000
  23916153.694       -3702.508       -2885.068   125680234.284 7  97932656.793 7
  23916153.033    23916155.940          42.500          39.500
  20170025.007         308.571         240.445   105994223.238 8  82592911.932 9
  20170024.310    20170025.329          50.000          55.750
  25031611.123         780.359         608.075   131542015.465 6 102500270.566 3
  25031610.323    25031613.270          37.000          20.250
  22111783.972       -1967.202       -1529.904   118200178.049 8  91933504.090 7
  22111783.361    22111789.681          46.250          39.000
  21282854.240        2750.882        2139.679   113569401.098 9  88331765.116 8
  21282854.260    21282858.760          51.750          46.500
  24068010.061        4468.808        3475.916   128837942.726 7 100207316.614 7
  24068011.531    24068015.993          42.500          41.250
  22705184.594        2835.636        2205.554   121244417.006 8  94301223.369 7
  22705184.621    22705187.554          47.500          43.500
  22363467.140       -4156.827       -3233.026   119503578.086 8  92947232.145 7
  22363466.827    22363472.646          48.500          43.250
  20852243.961        -911.596        -708.886   111388936.442 8  86635863.332 7
  20852244.122    20852247.355          46.000          42.500
  19676466.480       -1354.845       -1053.704   105292772.772 9  81894401.216 8
  19676466.992    19676471.197          51.750          48.750
  20173079.490        1831.640        1424.671   107685301.548 9  83755249.520 8
  20173080.022    20173083.964          51.000          48.500
  23732353.275        3425.543        2664.368   126952096.770 6  98740545.590 6
  23732353.154    23732355.908          36.750          36.750
  23291562.059       -3415.465       -2656.459   124550448.342 8  96872602.828 7
  23291562.988    23291568.393          48.250          41.500
 21  1  1  0  3  0.0000000  0 24G07G08G10G11G13G15G16G18G20G21G23G26
                                G27G30R01R02R03R09R15R16R17R18R19R24
  24323107.043        -693.555        -540.433   127818790.884 7  99599040.653 4
  24323106.686    24323104.633          41.500          26.000
  21867250.592        2500.281        1948.271   114913191.194 8  89542756.904 8
  21867249.984    21867251.609          46.000          49.000
  21318752.029        1434.579        1117.855   112030803.389 8  87296741.146 9
  21318751.453    21318752.747          49.500          54.000
  24070982.378        3493.255        2722.007   126493879.392 7  98566653.586 4
  24070981.578    24070980.133          42.000          24.000
  25273655.472        -911.990        -710.706   132813945.340 6 103491395.566 1
  25273655.083    25273652.971          38.250           7.000
  24292759.649        -160.802        -125.297   127659333.665 7  99474808.842 6
  24292759.363    24292758.243          41.750          37.000
  21748502.355       -2771.019       -2159.235   114289139.506 8  89056462.833 6
  21748501.443    21748499.977          47.000          37.500
  23328938.643       -3215.392       -2505.498   122594434.328 7  95528121.979 5
  23328938.339    23328937.774          44.000          30.500
  21364826.122       -1138.971        -887.513   112272936.170 8  87485411.950 6
  21364824.946    21364823.750          46.250          37.000
  23643408.070        2783.659        2169.082   124246948.659 7  96815797.798 4
  23643406.868    23643405.981          42.750          26.250
  21423390.793        -821.295        -639.972   112580690.023 8  87725206.456 6
  21423390.548    21423389.095          46.500          38.000
  23937303.438       -3707.421       -2888.899   125791376.860 7  98019261.385 7
  23937302.763    23937305.462          42.250          39.750
  20168306.917         292.765         228.129   105985195.101 8  82585877.016 9
  20168306.220    20168307.424          50.250          55.750
  25027210.839         761.302         593.232   131518884.709 6 102482246.612 3
  25027210.030    25027211.488          36.750          20.000
  22122893.134       -1992.374       -1549.539   118259564.928 8  91979693.891 7
  22122893.243    22122899.000          46.250          39.500
  21267447.737        2729.509        2122.973   113487187.758 9  88267821.410 8
  21267447.439    21267451.971          51.750          46.750
  24042967.541        4467.982        3475.122   128703883.980 8 100103048.646 7
  24042967.931    24042972.375          47.000          40.500
  22689310.626        2814.661        2189.298   121159655.662 8  94235297.883 7
  22689310.886    22689314.459          47.500          43.750
  22386832.132       -4167.076       -3241.142   119628430.108 8  93044339.261 7
  22386832.221    22386837.011          50.250          43.250
  20857441.478        -939.718        -730.866   111416698.100 8  86657455.734 7
  20857441.469    20857444.505          46.500          42.500
  19684098.272       -1368.094       -1064.090   105333610.325 9  81926163.752 8
  19684098.731    19684102.856          52.250          49.000
  20162819.641        1819.280        1415.026   107630530.940 9  83712650.160 8
  20162819.776    20162823.700          50.750          48.500
  23713149.950        3421.838        2661.522   126849376.872 6  98660652.426 7
  23713149.842    23713154.774          36.250          38.500
  23310732.179       -3418.855       -2659.027   124652957.044 8  96952331.747 7
  23310732.221    23310738.296          47.250          40.750
 21  1  1  0  3 30.0000000  0 24G07G08G10G11G13G15G16G18G20G21G23G26
                                G27G30R01R02R03R09R15R16R17R18R19R24
  24327110.743        -709.326        -552.722   127839829.716 7  99615434.563 5
  24327110.381    24327108.670          42.500          26.750
  21852996.236        2492.968        1942.572   114838283.908 8  89484387.598 8
  21852995.597    21852997.389          46.500          49.000
  21310609.633        1417.560        1104.593   111988014.909 8  87263399.485 9
  21310609.061    21310610.502          50.000          54.000
  24051043.471        3491.714        2720.815   126389100.111 7  98485007.466 4
  24051042.658    24051041.798          42.750          24.000
  25278910.042        -929.552        -724.368   132841559.667 6 103512913.155 1
  25278909.658    25278907.774          35.750           8.000
  24293730.736        -179.775        -140.083   127664435.270 7  99478784.120 6
  24293730.455    24293728.712          42.500          37.500
  21764356.265       -2783.589       -2169.029   114372452.200 8  89121381.811 6
  21764355.353    21764353.808          47.250          37.500
  23347302.200       -3218.350       -2507.802   122690934.662 7  95603317.018 5
  23347301.896    23347301.300          43.250          30.000
  21371376.286       -1156.299        -901.013   112307358.538 8  87512234.576 6
  21371375.093    21371374.362          47.250          37.000
  23627530.365        2778.260        2164.880   124163513.499 7  96750783.415 4
  23627529.154    23627528.438          42.750          26.250
  21428131.932        -840.231        -654.727   112605606.273 8  87744621.724 6
  21428131.682    21428130.806          47.000          38.250
  23958474.542       -3710.043       -2890.940   125902631.415 7  98105953.235 7
  23958473.876    23958476.300          41.000          38.750
  20166673.241         279.116         217.495   105976609.354 8  82579186.816 9
  20166672.535    20166673.433          49.750          55.500
  25022911.558         744.593         580.204   131496289.209 6 102464639.725 4
  25022910.758    25022911.462          37.750          20.750
  22134137.937       -2015.405       -1567.614   118319675.618 8  92026446.652 7
  22134137.297    22134143.581          45.500          38.750
  21252156.348        2710.070        2107.874   113405588.438 9  88204355.290 8
  21252155.681    21252160.553          51.500          47.000
  24017922.905        4469.288        3476.016   128569818.870 8  99998775.874 6
  24017923.235    24017927.273          46.250          37.000
  22673550.424        2795.877        2174.517   121075490.585 8  94169836.144 7
  22673550.731    22673553.333          48.250          43.750
  22410247.987       -4175.055       -3247.262   119753557.294 8  93141660.396 7
  22410248.542    22410252.013          50.250          42.250
  20862790.155        -965.551        -750.971   111445269.445 8  86679677.862 7
  20862789.782    20862793.806          46.000          43.000
  19691798.458       -1379.292       -1072.859   105374815.885 9  81958212.515 8
  19691798.680    19691803.033          51.500          49.000
  20152622.597        1809.087        1407.063   107576099.340 9  83670314.493 8
  20152622.963    20152627.030          51.250          48.750
  23693962.422        3420.511        2660.313   126746732.684 6  98580818.179 7
  23693961.876    23693966.651          36.250          38.500
  23329915.287       -3419.976       -2659.945   124755533.294 8  97032113.236 7
  23329915.128    23329919.736          48.000          39.750
 21  1  1  0  4  0.0000000  0 24G07G08G10G11G13G15G16G18G20G21G23G26
                                G27G30R01R02R03R09R15R16R17R18R19R24
  24331211.175        -727.712        -567.057   127861376.481 7  99632224.263 5
  24331210.782    24331208.996          43.500          26.750
  21838789.986        2483.120        1934.898   114763628.441 8  89426214.511 8
  21838789.329    21838790.983          46.250          49.500
  21302570.556        1398.053        1089.391   111945768.825 8  87230480.469 9
  21302569.998    21302571.289          48.750          54.000
  24031118.513        3487.849        2717.810   126284395.883 7  98403419.824 4
  24031117.664    24031116.719          41.500          24.000
  25284270.624        -949.373        -739.772   132869725.726 6 103534860.761 1
  25284270.276    25284267.407          34.000           6.250
  24294815.439        -201.059        -156.673   127670135.005 7  99483225.477 6
  24294815.189    24294813.568          41.750          37.500
  21780287.778       -2798.556       -2180.698   114456172.764 8  89186618.603 6
  21780286.853    21780285.762          46.500          37.500
  23365688.360       -3223.733       -2512.001   122787553.388 7  95678604.317 5
  23365688.065    23365687.071          43.250          30.250
  21378031.529       -1175.982        -916.347   112342331.073 8  87539485.908 6
  21378030.327    21378029.434          46.750          37.000
  23611689.639        2770.507        2158.836   124080269.253 7  96685917.780 5
  23611688.405    23611687.841          42.500          26.750
  21432987.173        -861.526        -671.318   112631119.933 8  87764502.503 6
  21432986.932    21432985.781          46.250          38.250
  23979666.320       -3715.016       -2894.819   126013993.604 7  98192728.944 7
  23979665.672    23979667.754          41.500          38.750
  20165123.528         263.041         204.965   105968464.724 8  82572840.347 9
  20165122.822    20165123.471          49.750          55.500
  25018713.475         725.447         565.290   131474227.646 7 102447448.905 4
  25018712.666    25018713.338          40.750          22.250
  22145517.284       -2040.726       -1587.417   118380505.116 8  92073758.495 7
  22145517.607    22145523.530          46.500          39.000
  21236980.039        2688.030        2090.597   113324605.290 9  88141368.414 8
  21236980.211    21236984.094          52.000          46.750
  23992878.252        4467.889        3475.140   128435749.499 8  99894499.568 7
  23992878.193    23992882.128          48.000          39.000
  22657901.233        2774.430        2157.854   120991923.667 8  94104839.650 7
  22657901.242    22657903.034          47.500          43.000
  22433713.740       -4185.433       -3255.378   119878953.384 8  93239190.695 7
  22433714.455    22433719.237          50.000          43.250
  20868289.789        -993.764        -772.988   111474646.970 8  86702527.053 7
  20868289.434    20868293.320          46.250          42.750
  19699566.682       -1392.889       -1083.463   105416386.632 9  81990545.323 8
  19699566.976    19699571.302          52.000          48.750
  20142488.551        1796.411        1397.132   107522005.703 9  83628241.669 8
  20142488.559    20142493.208          50.750          48.750
  23674787.704        3416.889        2657.358   126644162.979 6  98501041.823 6
  23674786.930    23674792.201          36.000          38.000
  23349108.537       -3423.551       -2662.845   124858174.481 8  97111945.249 7
  23349109.108    23349114.585          48.250          40.000
 21  1  1  0  4 30.0000000  0 24G07G08G10G11G13G15G16G18G20G21G23G26
                                G27G30R01R02R03R09R15R16R17R18R19R24
  24335408.385        -743.742        -579.541   127883430.714 7  99649409.403 5
  24335408.005    24335405.020          42.000          26.750
  21824631.930        2475.616        1929.053   114689227.214 8  89368239.532 8
  21824631.278    21824632.795          45.750          49.000
  21294635.268        1380.840        1075.980   111904067.192 8  87197985.701 9
  21294634.710    21294635.766          49.500          54.000
  24011208.922        3486.123        2716.457   126179768.491 7  98321892.020 4
  24011208.091    24011205.945          42.500          23.500
  25289734.224        -966.730        -753.312   132898443.591 5 103557238.319 1
  25289733.983    25289732.223          31.750           7.750
  24296013.556        -220.070        -171.482   127676433.701 7  99488133.584 6
  24296013.306    24296011.897          42.250          37.250
  21796296.236       -2811.082       -2190.456   114540299.901 8  89252172.205 6
  21796295.297    21796294.548          46.750          37.250
  23384096.253       -3226.593       -2514.228   122884289.769 7  95753983.284 5
  23384095.949    23384095.361          43.500          29.750
  21384791.151       -1193.294        -929.838   112377853.025 8  87567165.350 6
  21384789.944    21384788.994          46.750          37.000
  23595885.605        2765.025        2154.561   123997217.360 7  96621202.058 5
  23595884.362    23595883.671          43.000          26.750
  21437955.823        -880.391        -686.018   112657230.691 8  87784848.556 6
  21437955.569    21437954.349          46.500          38.000
  24000878.045       -3717.475       -2896.735   126125461.849 7  98279587.301 7
  24000877.397    24000879.224          41.250          39.000
  20163657.783         249.258         194.230   105960762.725 8  82566838.790 9
  20163657.073    20163657.898          49.250          55.500
  25014617.576         708.459         552.054   131452701.428 7 102430675.216 4
  25014616.781    25014616.438          39.750          21.250
  22157030.610       -2063.599       -1605.110   118442052.034 8  92121628.336 7
  22157030.744    22157037.493          46.000          39.250
  21221919.882        2668.306        2075.345   113244242.879 9  88078864.328 8
  21221919.684    21221924.444          51.750          46.750
  23967828.627        4468.821        3475.891   128301680.646 6  99790223.875 6
  23967827.138    23967836.273          36.750          35.000
  22642364.459        2755.294        2142.951   120908959.210 8  94040311.718 7
  22642364.715    22642366.615          47.500          43.250
  22457229.409       -4193.172       -3261.399   120004614.837 8  93336927.335 7
  22457229.786    22457234.961          49.250          43.250
  20873940.500       -1019.610        -793.053   111504830.029 8  86726002.759 7
  20873940.555    20873943.417          47.500          43.000
  19707403.840       -1404.108       -1092.112   105458322.724 9  82023162.274 8
  19707404.350    19707408.238          52.250          49.000
  20132419.467        1786.005        1389.055   107468251.674 9  83586432.981 8
  20132419.383    20132423.178          51.500          48.750
  23655626.957        3415.185        2656.178   126541669.265 6  98421324.539 6
  23655627.961    23655631.645          37.000          37.500
  23368316.007       -3424.678       -2663.559   124960880.564 8  97191827.757 7
  23368315.901    23368320.483          47.750          39.500
 21  1  1  0  5  0.0000000  0 24G07G08G10G11G13G15G16G18G20G21G23G26
                                G27G30R01R02R03R09R15R16R17R18R19R24
  24339700.337        -760.339        -592.473   127905986.786 7  99666985.539 5
  24339699.940    24339697.720          42.500          26.750
  21810521.916        2467.373        1922.627   114615077.657 8  89310460.656 8
  21810521.255    21810522.421          45.750          49.250
  21286802.498        1362.866        1061.973   111862907.156 8  87165912.958 9
  21286801.940    21286803.375          49.750          54.250
  23991313.686        3483.688        2714.572   126075214.771 7  98240421.635 4
  23991312.850    23991310.540          42.750          24.000
  25295303.890        -984.903        -767.422   132927707.799 6 103580041.543 2
  25295303.595    25295301.164          35.000          11.250
  24297325.851        -239.889        -186.926   127683327.302 7  99493505.257 6
  24297325.606    24297324.211          42.000          37.750
  21812381.276       -2824.345       -2200.789   114624826.789 8  89318037.307 6
  21812380.333    21812379.320          47.000          37.500
  23402526.183       -3230.277       -2517.097   122981138.051 7  95829449.469 5
  23402525.875    23402524.274          43.250          29.000
  21391654.207       -1211.443        -943.982   112413918.793 8  87595268.547 6
  21391652.987    21391652.090          46.500          37.250
  23580116.899        2758.692        2149.627   123914354.109 7  96556633.311 5
  23580115.674    23580114.956          42.500          26.750
  21443037.106        -900.071        -701.357   112683933.299 8  87805655.788 6
  21443036.838    21443035.866          46.750          38.250
  24022107.981       -3720.660       -2899.214   126237029.539 7  98366523.134 7
  24022107.315    24022110.061          42.000          38.750
  20162275.869         234.610         182.811   105953499.769 8  82561179.350 9
  20162275.163    20162275.823          49.750          55.750
  25010622.246         690.802         538.284   131431706.943 7 102414315.865 4
  25010621.433    25010621.795          41.000          21.000
  22168677.461       -2087.181       -1623.505   118504309.195 8  92170050.580 7
  22168677.384    22168683.566          45.750          39.000
  21206976.322        2647.519        2059.164   113164500.506 9  88016842.498 8
  21206976.202    21206980.456          51.750          46.750
  23942787.051        4468.717        3475.717   128167611.966 8  99685948.177 7
  23942787.471    23942792.769          48.250          42.000
  22626940.481        2735.242        2127.436   120826596.597 8  93976251.919 7
  22626940.547    22626943.368          48.250          44.000
  22480794.127       -4201.641       -3267.904   120130532.973 8  93434863.648 7
  22480794.017    22480798.539          49.750          42.500
  20879740.512       -1046.237        -813.588   111535812.566 8  86750100.262 7
  20879739.932    20879743.558          47.000          42.750
  19715307.829       -1416.020       -1101.304   105500619.327 9  82056059.626 8
  19715308.454    19715312.310          52.250          48.750
  20122411.871        1774.880        1380.502   107414833.228 9  83544885.294 8
  20122412.072    20122416.148          51.000          48.500
  23636480.930        3412.719        2654.448   126439247.986 6  98341663.618 7
  23636480.243    23636485.872          35.500          39.500
  23387533.518       -3426.670       -2665.218   125063646.279 8  97271756.586 7
  23387533.363    23387539.286          47.250          41.000
 21  1  1  0  5 30.0000000  0 24G07G08G10G11G13G15G16G18G20G21G23G26
                                G27G30R01R02R03R09R15R16R17R18R19R24
  24344088.239        -776.595        -605.140   127929048.535 7  99684955.729 4
  24344087.819    24344085.320          42.750          25.750
  21796461.070        2459.364        1916.385   114541186.121 8  89252882.844 8
  21796460.395    21796461.640          46.250          49.250
  21279074.090        1345.255        1048.246   111822294.918 8  87134267.074 9
  21279073.523    21279075.162          50.000          54.250
  23971432.787        3481.736        2713.031   125970740.843 7  98159013.434 4
  23971431.960    23971430.506          42.750          25.250
  25300977.865       -1002.456        -781.145   132957522.383 6 103603273.667 2
  25300977.548    25300974.860          36.250          12.250
  24298751.753        -259.262        -202.026   127690820.829 7  99499344.386 6
  24298751.508    24298750.206          41.500          37.500
  21828542.951       -2837.033       -2210.678   114709756.254 8  89384216.101 6
  21828542.012    21828540.831          47.000          37.250
  23420977.858       -3233.459       -2519.581   123078101.697 7  95905005.529 5
  23420977.554    23420976.138          42.750          29.250
  21398621.463       -1228.895        -957.578   112450531.819 8  87623798.177 6
  21398620.256    21398619.252          46.750          37.250
  23564385.630        2752.941        2145.153   123831685.305 7  96492216.093 5
  23564384.396    23564383.922          42.250          26.500
  21448231.868        -919.292        -716.332   112711231.553 8  87826927.167 6
  21448231.600    21448230.579          46.750          38.250
  24043358.200       -3723.280       -2901.257   126348699.187 7  98453538.434 7
  24043357.521    24043360.038          42.000          38.750
  20160978.110         220.468         171.791   105946681.398 8  82555866.334 9
  20160977.404    20160978.287          50.250          55.750
  25006729.019         673.537         524.845   131411249.710 7 102398375.128 4
  25006728.206    25006727.990          41.500          20.500
  22180457.474       -2110.218       -1641.455   118567278.651 8  92219026.837 7
  22180457.658    22180463.428          46.750          39.000
  21192149.861        2627.294        2043.332   113085386.631 9  87955309.492 8
  21192150.213    21192154.289          51.750          46.500
  23917744.298        4469.039        3475.868   128033552.354 8  99581679.559 7
  23917743.894    23917748.969          45.500          41.500
  22611630.643        2715.543        2112.045   120744843.951 8  93912666.513 7
  22611630.778    22611633.085          48.000          43.250
  22504405.429       -4209.482       -3274.041   120256708.686 8  93533000.307 7
  22504405.834    22504410.333          49.500          42.000
  20885691.645       -1072.255        -834.117   111567598.334 8  86774822.527 7
  20885692.209    20885694.119          48.750          42.750
  19723280.204       -1427.492       -1110.381   105543280.521 9  82089240.558 8
  19723280.882    19723284.586          52.750          48.750
  20112469.279        1764.186        1372.017   107361756.333 9  83503603.265 8
  20112469.325    20112473.092          51.500          48.500
  23617348.113        3410.789        2652.639   126336904.966 6  98262063.600 7
  23617348.392    23617353.247          36.000          38.500
  23406762.878       -3428.067       -2666.268   125166476.289 8  97351735.451 7
  23406763.415    23406769.012          48.000          40.500
 21  1  1  0  6  0.0000000  0 24G07G08G10G11G13G15G16G18G20G21G23G26
                                G27G30R01R02R03R09R15R16R17R18R19R24
  24348572.433        -793.293        -618.151   127952613.405 7  99703317.968 5
  24348572.022    24348570.373          42.750          26.500
  21782448.605        2450.572        1909.538   114467552.524 8  89195506.015 8
  21782447.935    21782449.519          46.750          49.750
  21271450.183        1326.817        1033.882   111782230.476 8  87103048.038 9
  21271449.620    21271450.865          49.500          54.000
  23951566.588        3478.959        2710.865   125866346.587 7  98077667.316 4
  23951565.739    23951564.817          41.250          25.000
  25306756.272       -1020.766        -795.387   132987885.189 7 103626932.981 3
  25306755.906    25306753.241          38.750          16.500
  24300292.107        -279.341        -217.669   127698913.209 7  99505650.150 6
  24300291.866    24300290.024          42.250          37.750
  21844780.052       -2850.487       -2221.159   114795084.950 8  89450705.983 6
  21844779.087    21844778.342          48.000          37.250
  23439451.053       -3237.269       -2522.546   123175177.922 7  95980649.307 5
  23439450.745    23439449.837          43.000          29.750
  21405692.367       -1247.204        -971.847   112487689.146 8  87652751.938 6
  21405691.169    21405690.115          46.750          37.250
  23548691.472        2746.367        2140.017   123749210.501 7  96427950.040 4
  23548690.301    23548689.107          42.500          26.250
  21453539.593        -939.127        -731.786   112739123.014 8  87848660.775 6
  21453539.330    21453538.022          46.750          38.000
  24064627.089       -3726.808       -2904.005   126460467.171 7  98540630.343 6
  24064626.379    24064628.729          42.500          38.250
  20159765.303         205.541         160.160   105940306.969 8  82550899.239 9
  20159764.579    20159765.196          49.750          55.500
  25002938.326         655.523         510.797   131391328.918 7 102382852.387 3
  25002937.548    25002936.428          41.000          19.750
  22192369.417       -2133.950       -1659.740   118630956.423 8  92268553.988 7
  22192369.525    22192375.716          46.000          39.000
  21177442.329        2606.002        2026.735   113006904.747 9  87894268.045 8
  21177442.378    21177447.035          51.250          47.000
  23892702.562        4468.515        3475.235   127899504.392 7  99477420.237 7
  23892702.127    23892707.730          44.000          39.250
  22596435.306        2694.886        2095.884   120663703.840 8  93849557.539 7
  22596435.947    22596438.254          47.500          43.500
  22528065.822       -4217.942       -3280.692   120383136.037 8  93631332.657 7
  22528064.637    22528070.264          48.750          43.000
  20891791.136       -1099.060        -854.958   111600184.064 8  86800166.982 7
  20891791.267    20891794.209          48.000          43.000
  19731320.227       -1439.724       -1119.900   105586304.407 9  82122703.573 8
  19731320.938    19731324.557          52.250          48.750
  20102589.205        1752.600        1363.018   107309020.330 9  83462586.371 8
  20102589.729    20102594.074          51.250          48.750
  23598232.219        3407.846        2650.446   126234639.679 6  98182524.061 6
  23598231.462    23598235.531          36.500          38.000
  23426005.796       -3430.274       -2667.926   125269368.308 8  97431762.548 7
  23426006.357    23426009.651          49.750          40.000
 21  1  1  0  6 30.0000000  0 24G07G08G10G11G13G15G16G18G20G21G23G26
                                G27G30R01R02R03R09R15R16R17R18R19R24
  24353153.093        -810.674        -631.698   127976680.542 7  99722071.580 4
  24353152.700    24353150.391          41.500          26.000
  21768485.979        2441.443        1902.424   114394179.670 8  89138332.369 8
  21768485.318    21768487.249          47.000          49.750
  21263930.476        1308.071        1019.278   111742715.691 9  87072257.311 9
  21263929.913    21263931.473          50.500          54.250
  23931716.448        3475.767        2708.380   125762033.729 7  97996384.610 4
  23931715.630    23931714.466          41.250          24.250
  25312637.911       -1039.394        -809.918   133018795.675 7 103651019.073 4
  25312637.545    25312635.239          40.500          20.500
  24301945.875        -299.622        -233.468   127707604.980 7  99512422.975 6
  24301945.647    24301943.755          42.500          37.500
  21861093.435       -2864.107       -2231.771   114880811.025 8  89517505.512 6
  21861092.456    21861091.469          47.750          37.500
  23457945.641       -3241.401       -2525.766   123272365.853 7  96056380.132 5
  23457945.342    23457944.302          42.500          29.250
  21412866.505       -1265.720        -986.276   112525390.701 8  87682129.775 6
  21412865.312    21412864.314          47.250          37.000
  23533033.885        2739.457        2134.642   123666930.973 7  96363836.139 5
  23533032.727    23533031.935          43.750          27.750
  21458959.693        -959.277        -747.488   112767607.191 8  87870856.247 6
  21458959.434    21458958.482          47.250          38.250
  24085914.097       -3730.376       -2906.786   126572331.720 7  98627797.511 7
  24085913.364    24085916.139          41.500          38.750
  20158637.211         190.254         148.253   105934377.775 8  82546279.084 9
  20158636.487    20158636.871          50.000          55.750
  24999250.396         637.241         496.548   131371945.810 7 102367748.614 4
  24999249.609    24999248.125          42.250          21.250
  22204413.300       -2157.863       -1678.193   118695340.360 8  92318630.400 7
  22204413.683    22204420.003          45.750          39.000
  21162853.568        2584.306        2010.117   112929058.115 9  87833720.679 8
  21162853.892    21162858.790          51.250          47.000
  23867664.247        4467.483        3474.866   127765472.576 8  99373173.077 7
  23867664.892    23867669.564          48.250          38.750
  22581356.503        2673.938        2079.794   120583180.086 8  93786927.928 7
  22581357.264    22581359.472          48.500          44.000
  22551771.287       -4226.525       -3287.227   120509811.507 8  93729858.013 7
  22551771.696    22551775.493          50.250          42.500
  20898040.716       -1126.043        -875.750   111633568.753 8  86826132.821 7
  20898040.555    20898044.186          47.250          42.750
  19739427.939       -1452.187       -1129.369   105629690.588 9  82156448.374 8
  19739428.701    19739432.382          52.250          48.750
  20092774.513        1740.840        1354.056   107256626.724 9  83421835.789 8
  20092774.674    20092778.875          51.000          48.750
  23579130.000        3404.907        2648.285   126132453.155 6  98103045.723 6
  23579128.244    23579131.941          36.750          36.750
  23445257.041       -3432.762       -2669.992   125372321.759 8  97511837.461 7
  23445257.842    23445262.701          48.500          39.500
 21  1  1  0  7  0.0000000  0 24G07G08G10G11G13G15G16G18G20G21G23G26
                                G27G30R01R02R03R09R15R16R17R18R19R24
  24357826.908        -826.752        -644.217   128001245.422 7  99741213.038 5
  24357826.484    24357824.747          42.250          26.750
  21754572.909        2433.031        1895.869   114321065.794 8  89081360.515 8
  21754572.234    21754573.946          46.250          49.500
  21256515.266        1290.040        1005.229   111703748.579 8  87041893.341 9
  21256514.725    21256516.251          49.500          54.250
  23911881.735        3473.403        2706.557   125657800.319 7  97915163.815 4
  23911880.926    23911879.390          42.500          25.250
  25318623.332       -1057.185        -823.788   133050249.305 7 103675528.378 4
  25318622.939    25318620.522          40.750          21.750
  24303713.105        -319.231        -248.745   127716892.880 7  99519660.325 6
  24303712.895    24303711.010          41.000          36.750
  21877481.124       -2876.800       -2241.664   114966928.814 8  89584610.267 6
  21877480.159    21877479.106          47.500          37.500
  23476459.832       -3244.673       -2528.316   123369660.815 7  96132194.371 5
  23476459.537    23476458.702          42.750          29.500
  21420143.499       -1283.330       -1000.000   112563631.583 8  87711927.867 6
  21420142.306    21420141.427          47.250          37.250
  23517412.967        2733.301        2129.851   123584844.058 7  96299872.341 5
  23517411.796    23517411.435          42.250          27.000
  21464492.114        -978.578        -762.528   112796679.695 8  87893510.147 6
  21464491.851    21464490.673          46.500          38.250
  24107218.874       -3733.033       -2908.859   126684287.196 7  98715035.518 7
  24107218.123    24107220.880          43.000          39.000
  20157592.870         175.846         137.025   105928891.162 8  82542003.802 9
  20157592.155    20157592.916          50.000          56.000
  24995663.600         619.675         482.861   131353097.588 7 102353061.648 4
  24995662.796    24995661.547          42.750          22.250
  22216589.185       -2180.797       -1695.965   118760424.262 8  92369251.196 7
  22216588.935    22216595.161          45.250          39.000
  21148385.269        2563.369        1993.758   112851847.865 9  87773668.268 8
  21148385.606    21148389.383          51.750          47.250
  23842629.285        4467.109        3474.333   127631458.046 8  99268939.564 7
  23842630.003    23842634.331          46.750          42.000
  22566392.292        2653.600        2063.958   120503273.118 8  93724778.059 7
  22566392.231    22566394.944          48.000          43.500
  22575521.787       -4234.161       -3293.182   120636727.297 8  93828570.284 7
  22575522.432    22575525.894          50.000          42.250
  20904438.505       -1152.226        -896.141   111667747.589 8  86852716.348 7
  20904439.078    20904442.069          47.750          42.500
  19747602.282       -1463.793       -1138.428   105673435.107 9  82190471.877 8
  19747602.803    19747607.013          51.500          48.750
  20083023.009        1729.759        1345.382   107204572.882 9  83381349.471 8
  20083023.097    20083027.625          51.250          48.750
  23560039.482        3402.794        2646.578   126030342.673 6  98023626.555 6
  23560039.598    23560043.760          36.250          37.750
  23464520.730       -3434.330       -2671.088   125475333.190 8  97591957.436 7
  23464521.283    23464526.393          47.250          40.000
 21  1  1  0  7 30.0000000  0 24G07G08G10G11G13G15G16G18G20G21G23G26
                                G27G30R01R02R03R09R15R16R17R18R19R24
  24362596.528        -843.619        -657.366   128026308.888 7  99760743.003 5
  24362596.046    24362594.585          41.750          27.000
  21740709.948        2423.947        1888.790   114248214.400 8  89024593.196 8
  21740709.269    21740710.471          46.500          49.500
  21249205.118        1271.279         990.607   111665332.478 8  87011958.733 9
  21249204.591    21249205.866          50.000          54.250
  23892062.952        3470.314        2704.143   125553649.485 7  97834007.377 4
  23892062.161    23892060.246          42.750          26.000
  25324712.458       -1075.808        -838.291   133082247.360 7 103700461.922 4
  25324712.047    25324709.708          41.000          23.000
  24305594.192        -339.499        -264.543   127726779.289 7  99527364.023 6
  24305593.982    24305592.049          41.750          36.750
  21893943.331       -2890.181       -2252.084   115053438.250 8  89652020.213 6
  21893942.375    21893941.128          47.000          37.250
  23494994.551       -3248.559       -2531.343   123467063.389 7  96208092.464 5
  23494994.283    23494993.845          43.500          29.500
  21427523.220       -1301.665       -1014.284   112602412.214 8  87742146.544 6
  21427522.018    21427521.077          46.750          37.000
  23501829.680        2726.370        2124.448   123502952.777 7  96236060.989 5
  23501828.500    23501828.021          43.250          27.250
  21470136.517        -998.514        -778.063   112826341.438 8  87916623.203 6
  21470136.276    21470134.972          47.000          38.000
  24128540.211       -3736.393       -2911.476   126796333.374 7  98802344.222 6
  24128539.456    24128542.345          41.500          38.250
  20156633.512         160.590         125.132   105923849.912 8  82538075.555 9
  20156632.797    20156633.742          49.750          56.000
  24992178.255         601.417         468.628   131334786.910 7 102338793.556 4
  24992177.468    24992178.026          41.500          23.250
  22228894.983       -2204.434       -1714.615   118826207.678 8  92420416.107 7
  22228895.490    22228901.202          46.500          39.000
  21134036.130        2541.481        1976.814   112775279.902 9  87714115.429 8
  21134036.328    21134040.690          51.750          47.000
  23817598.159        4465.853        3473.722   127497466.851 7  99164724.268 7
  23817597.573    23817602.938          44.000          40.500
  22551545.397        2632.367        2047.459   120423988.466 8  93663112.207 7
  22551544.854    22551547.550          47.500          44.000
  22599316.589       -4242.394       -3299.535   120763881.304 8  93927467.796 7
  22599316.466    22599321.212          49.500          42.000
  20910985.727       -1178.968        -916.945   111702720.697 8  86879917.649 7
  20910985.902    20910989.063          47.250          42.500
  19755844.996       -1476.065       -1148.016   105717539.589 9  82224775.360 8
  19755844.812    19755848.945          51.750          48.500
  20073335.577        1717.965        1336.294   107152861.469 9  83341129.490 8
  20073336.041    20073339.933          51.250          48.500
  23540965.284        3399.577        2644.304   125928311.713 6  97944269.210 7
  23540965.283    23540970.586          35.250          39.250
  23483795.598       -3436.676       -2672.888   125578403.818 8  97672123.439 7
  23483795.304    23483801.616          47.000          40.750
 21  1  1  0  8  0.0000000  0 24G07G08G10G11G13G15G16G18G20G21G23G26
                                G27G30R01R02R03R09R15R16R17R18R19R24
  24367460.623        -859.138        -669.466   128051868.633 7  99780659.671 5
  24367460.163    24367458.520          40.750          27.500
  21726896.954        2416.277        1882.813   114175626.178 8  88968030.951 8
  21726896.284    21726897.624          46.500          50.000
  21241999.547        1254.014         977.149   111627467.456 8  86982453.533 9
  21241999.024    21242000.212          49.500          54.000
